stamp_abs,stamp_rel,size_valid,width,height,width_pair_count,height_pair_count,axis_reliable,geom_updated,geom_fail_code,pipe_s,s_odom,d_exit_scan,scan_valid,length_est,length_valid,robot_pose_valid,robot_x,robot_y,robot_z,robot_qx,robot_qy,robot_qz,robot_qw,robot_roll,robot_pitch,robot_yaw,robot_vx,robot_vy,robot_vz
1778503974.272900105,0.299754143,1,0.304465902,0.143075377,9,5,1,1,0,-0.000446608,-0.000446608,0.000000000,0,0.113650313,1,1,0.000000000,0.000000000,0.000000000,0.000000000,-0.000000000,0.000000000,1.000000000,0.000000000,-0.000000000,0.000000000,0.043083618,0.026363039,0.000766421
1778503974.373124361,0.399978399,1,0.327069934,0.130609784,17,15,1,1,0,0.001852438,0.001852438,0.000000000,0,0.113650313,1,1,0.002517802,-0.005424827,-0.010341059,0.000036899,-0.000932760,0.000634295,0.999999363,0.000074982,-0.001865473,0.001268661,0.033996700,-0.043493732,-0.097467754
1778503974.472984314,0.499838352,1,0.327600045,0.110787266,16,17,1,1,0,0.002868418,0.002868418,0.000000000,0,0.113650313,1,1,0.002900485,-0.008903600,-0.008297938,0.002557389,0.002321694,0.006513291,0.999972823,0.005084472,0.004676593,0.013014863,0.039792222,-0.039025104,-0.026328734
1778503974.574829340,0.601683378,0,0.000000000,0.000000000,19,19,1,1,0,0.003697003,0.003697003,0.000000000,0,0.113650313,1,1,0.003873935,-0.008659660,-0.011699752,-0.005721552,0.004415132,0.001036450,0.999973348,3.130140007,3.132774371,-3.139469202,0.052059552,0.010540305,-0.031147546
1778503974.673166513,0.700020552,0,0.000000000,0.000000000,37,17,1,1,0,0.004909643,0.004909643,0.000000000,0,0.113650313,1,1,0.005588771,-0.003114465,-0.011738900,-0.007449355,0.000249246,-0.000247640,0.999972191,3.126693928,3.141090486,3.141101101,0.050429857,0.058372449,-0.018760474
1778503974.773099661,0.799953699,0,0.000000000,0.000000000,17,9,1,1,0,0.006399119,0.006399119,0.000000000,0,0.113650313,1,1,0.007280423,0.000383039,-0.006405558,-0.006412824,-0.001661043,-0.002428137,0.999975110,3.128758836,-3.138301787,3.136715151,0.051390168,0.070119016,0.001299999
1778503974.872996807,0.899850845,0,0.000000000,0.000000000,25,1,1,1,0,0.008503856,0.008503856,0.000000000,0,0.113650313,1,1,0.009912369,0.004384010,-0.009302721,-0.000083849,-0.006415597,-0.002575395,0.999976100,3.141391897,-3.128761845,3.136440463,0.042567110,0.056349366,-0.007531792
1778503974.973099947,0.999953985,0,0.000000000,0.000000000,16,12,1,1,0,0.009637052,0.009637052,0.000000000,0,0.113650313,1,1,0.011019258,0.006389168,-0.008457167,0.003282850,-0.005311773,-0.004646187,0.999969710,0.006516559,-0.010653931,-0.009257875,0.039717111,0.043305856,-0.003074059
1778503975.073145390,1.099999428,0,0.000000000,0.000000000,15,26,1,1,0,0.007011302,0.007011302,0.000000000,0,0.113650313,1,1,0.008687960,0.005897396,-0.010407537,0.007992654,-0.008874066,-0.002619758,0.999925250,0.015940815,-0.017789621,-0.005098098,0.016269659,0.018018912,-0.008810967
1778503975.172128439,1.198982477,1,0.248884959,0.205698129,18,16,1,1,0,0.008030369,0.008030369,0.000000000,0,0.113650313,1,1,0.010079069,0.007077395,-0.011158903,0.009590927,-0.010118269,-0.006078853,0.999884334,0.019061723,-0.020352206,-0.011964976,0.014369707,0.010666588,-0.008694078
1778503975.273479462,1.300333500,1,0.239833778,0.219164729,18,7,1,1,0,0.005514203,0.005514203,0.000000000,0,0.113650313,1,1,0.007718181,0.004645131,-0.010164899,0.012307609,-0.013351398,-0.006010384,0.999817052,0.024461476,-0.026849084,-0.011694403,-0.007683426,-0.013537371,-0.004621848
1778503975.373125792,1.399979830,0,0.000000000,0.000000000,17,0,1,1,0,0.006254933,0.006254933,0.000000000,0,0.113650313,1,1,0.008371905,0.002774426,-0.008419046,0.012157096,-0.012240973,-0.004025316,0.999843068,0.024221512,-0.024578451,-0.007754159,-0.005644147,-0.023955649,0.002727060
1778503975.473246813,1.500100851,0,0.000000000,0.000000000,17,20,1,1,0,0.004553530,0.004553530,0.000000000,0,0.113650313,1,1,0.006400379,0.001065683,-0.004203883,0.011962724,-0.013108887,-0.002753037,0.999838723,0.023859914,-0.026282438,-0.005193366,-0.016455516,-0.028665145,0.014283356
1778503975.573127985,1.599982023,0,0.000000000,0.000000000,28,1,1,1,0,0.005550287,0.005550287,0.000000000,0,0.113650313,1,1,0.007150879,0.000178978,-0.006832232,0.009447593,-0.010617241,-0.001029726,0.999898473,0.018876786,-0.021253383,-0.001859049,-0.006151558,-0.023561853,0.004734404
1778503975.673077822,1.699931860,1,0.311823327,0.260244206,20,14,1,1,0,0.002549360,0.002549360,0.000000000,0,0.113650313,1,1,0.004198188,0.000847476,-0.006978061,0.006882937,-0.010561904,-0.001944909,0.999918641,0.013727171,-0.021150439,-0.003744953,-0.014660528,-0.009059019,0.003552979
1778503975.771949530,1.798803568,0,0.000000000,0.000000000,32,17,1,1,0,0.000552197,0.000552197,0.000000000,0,0.113650313,1,1,0.002273178,0.001005379,-0.006020158,0.006730219,-0.011553094,-0.002451506,0.999907606,0.013406540,-0.023139116,-0.004748338,-0.020100603,-0.004807591,0.005922893
1778503975.876016140,1.902870178,0,0.000000000,0.000000000,31,0,1,1,0,0.001779127,0.001779127,0.000000000,0,0.113650313,1,1,0.003425405,0.002740771,-0.007075607,0.005142060,-0.009491038,-0.003293485,0.999936314,0.010222975,-0.019015883,-0.006490162,-0.005340775,0.008475408,0.002550994
1778503975.973429203,2.000283241,0,0.000000000,0.000000000,12,11,1,1,0,0.001658396,0.001658396,0.000000000,0,0.113650313,1,1,0.003286568,0.003682146,-0.007311128,0.005166737,-0.008677929,-0.004149032,0.999940390,0.010262581,-0.017398576,-0.008209232,-0.001256528,0.011740852,0.001792526
1778503976.073236227,2.100090265,1,0.232923263,0.219276617,18,5,1,1,0,0.001203572,0.001203572,0.000000000,0,0.113650313,1,1,0.003046826,0.001407045,-0.005474150,0.006861886,-0.011077095,-0.005760826,0.999898508,0.013598533,-0.022232833,-0.011371517,-0.005227045,-0.003301486,0.006680456
1778503976.172146797,2.199000835,1,0.234920247,0.179222662,18,3,1,1,0,0.001345053,0.001345053,0.000000000,0,0.113650313,1,1,0.003333211,0.002640677,-0.007560264,0.005033387,-0.012239177,-0.005307479,0.999898344,0.009938986,-0.024531755,-0.010494020,-0.005738869,0.007261750,-0.000393668
1778503976.273102522,2.299956560,1,0.278399735,0.179222662,21,23,1,1,0,0.002193172,0.002193172,0.000000000,0,0.113650313,1,1,0.003995981,0.002485664,-0.009220193,0.004640654,-0.010504574,-0.003804760,0.999926818,0.009202861,-0.021044477,-0.007513201,-0.000225117,0.007743281,-0.004176823
1778503976.371279478,2.398133516,1,0.278882373,0.212440788,24,27,1,1,0,0.002062795,0.002062795,0.000000000,0,0.113650313,1,1,0.003963707,0.004236060,-0.009903703,0.003633191,-0.011625519,-0.003040758,0.999921197,0.007197119,-0.023273402,-0.005998222,-0.002989735,0.017076891,-0.004556739
1778503976.471211433,2.498065472,0,0.000000000,0.000000000,24,23,1,1,0,0.001741668,0.001741668,0.000000000,0,0.113650313,1,1,0.003653635,0.004508816,-0.009453369,0.005151782,-0.012609705,-0.001619863,0.999905911,0.010265192,-0.025236407,-0.003110493,-0.007517698,0.012150107,-0.002469933
1778503976.573098183,2.599952221,0,0.000000000,0.000000000,33,17,1,1,0,0.002838425,0.002838425,0.000000000,0,0.113650313,1,1,0.004808692,0.005293814,-0.010071484,0.005338302,-0.011838671,-0.003792944,0.999908477,0.010588995,-0.023717893,-0.007460965,-0.001726877,0.012918452,-0.003363161
1778503976.673095226,2.699949265,0,0.000000000,0.000000000,33,16,1,1,0,0.003818473,0.003818473,0.000000000,0,0.113650313,1,1,0.005608115,0.006065676,-0.008963136,0.005891832,-0.010183109,-0.003403933,0.999924999,0.011716162,-0.020406218,-0.006688804,0.003150263,0.010149231,0.001720450
1778503976.773199081,2.800053120,1,0.259613316,0.156541290,19,7,1,1,0,0.004129939,0.004129939,0.000000000,0,0.113650313,1,1,0.005960197,0.005170199,-0.007816190,0.007976917,-0.011327133,-0.002946458,0.999899687,0.015890246,-0.022700950,-0.005713117,0.001423181,-0.001560466,0.004260306
1778503976.873229742,2.900083780,1,0.270142217,0.227456291,15,3,1,1,0,0.004761743,0.004761743,0.000000000,0,0.113650313,1,1,0.006769072,0.004318843,-0.008347146,0.007711848,-0.013682823,-0.002224421,0.999874172,0.015367255,-0.027399940,-0.004238845,-0.001613665,-0.005758232,0.001321852
1778503976.973020077,2.999874115,1,0.266443004,0.205279450,15,11,1,1,0,0.003361913,0.003361913,0.000000000,0,0.113650313,1,1,0.005523786,0.003778285,-0.007440852,0.006718134,-0.014077402,-0.005349931,0.999864027,0.013289499,-0.028226607,-0.010513641,-0.011364060,-0.004936081,0.003665013
1778503977.073271275,3.100125313,1,0.227527338,0.226827319,14,11,1,1,0,0.001311955,0.001311955,0.000000000,0,0.113650313,1,1,0.003284744,0.002384053,-0.004479232,0.008158415,-0.013157601,-0.005804331,0.999863304,0.016168199,-0.026409382,-0.011396605,-0.018921332,-0.011992808,0.010778750
1778503977.173078775,3.199932814,0,0.000000000,0.000000000,14,15,1,1,0,0.000380360,0.000380360,0.000000000,0,0.113650313,1,1,0.002324682,0.002287693,-0.003130927,0.005783408,-0.013919012,-0.003527975,0.999880176,0.011471927,-0.027879108,-0.006896842,-0.021140293,-0.005223360,0.012127406
1778503977.273089886,3.299943924,0,0.000000000,0.000000000,10,21,1,1,0,0.000591274,0.000591274,0.000000000,0,0.113650313,1,1,0.002558879,0.003169494,-0.004994765,0.005233132,-0.014256281,-0.002271935,0.999882099,0.010404675,-0.028536852,-0.004395929,-0.017943596,0.001741093,0.005079220
1778503977.372193098,3.399047136,1,0.227527338,0.214673282,21,4,1,1,0,0.000205917,0.000205917,0.000000000,0,0.113650313,1,1,0.002443083,0.003721150,-0.004967050,0.005135530,-0.014511326,-0.004927200,0.999869377,0.010131172,-0.029073565,-0.009708322,-0.017617416,0.005746920,0.004507753
1778503977.473220825,3.500074863,0,0.000000000,0.000000000,30,4,1,1,0,0.000270050,0.000270050,0.000000000,0,0.113650313,1,1,0.002363222,0.005500790,-0.004762407,0.004848992,-0.014980509,-0.003138432,0.999871103,0.009607172,-0.029992089,-0.006133571,-0.017951524,0.012949837,0.004297196
1778503977.573021889,3.599875927,0,0.000000000,0.000000000,36,12,1,1,0,0.000374003,0.000374003,0.000000000,0,0.113650313,1,1,0.002506544,0.007419040,-0.004278251,0.004608734,-0.015617990,-0.002513118,0.999864252,0.009142311,-0.031259996,-0.004884001,-0.018153191,0.018246129,0.004562547
1778503977.673775673,3.700629711,0,0.000000000,0.000000000,13,11,1,1,0,0.000288689,0.000288689,0.000000000,0,0.113650313,1,1,0.002307637,0.007625748,-0.003829229,0.005316068,-0.015398048,-0.000760656,0.999867022,0.010612531,-0.030804959,-0.001358040,-0.017902130,0.012553809,0.004843399
1778503977.773142815,3.799996853,0,0.000000000,0.000000000,21,28,1,1,0,-0.001880454,-0.001880454,0.000000000,0,0.113650313,1,1,0.000249467,0.007729251,-0.003396801,0.006756979,-0.015934911,-0.002577633,0.999846877,0.013436982,-0.031905188,-0.004941668,-0.026247933,0.005985363,0.004637387
1778503977.873079777,3.899933815,1,0.247262352,0.168611916,19,4,1,1,0,-0.000932345,-0.000932345,0.000000000,0,0.113650313,1,1,0.000968707,0.005867254,-0.004493539,0.009096622,-0.013206380,-0.002472812,0.999868355,0.018132874,-0.026457359,-0.004706370,-0.014223925,-0.009869353,0.001071230
1778503977.973277330,4.000131369,0,0.000000000,0.000000000,21,0,1,1,0,-0.000681151,-0.000681151,0.000000000,0,0.113650313,1,1,0.001392674,0.003130750,-0.004432306,0.008790152,-0.014668790,-0.004345592,0.999844326,0.017458516,-0.029413651,-0.008435698,-0.012802372,-0.020909489,0.000894414
1778503978.073074579,4.099928617,0,0.000000000,0.000000000,22,25,1,1,0,-0.001633087,-0.001633087,0.000000000,0,0.113650313,1,1,0.000217782,0.001648995,-0.005009050,0.008695867,-0.012102037,-0.004190415,0.999880174,0.017294183,-0.024276437,-0.008171848,-0.011005437,-0.022167421,-0.000338912
1778503978.173056602,4.199910641,0,0.000000000,0.000000000,26,24,1,1,0,0.001033153,0.001033153,0.000000000,0,0.113650313,1,1,0.002804534,0.001706880,-0.005468403,0.007026568,-0.011417995,-0.003171602,0.999905094,0.013983491,-0.022880390,-0.006183802,0.003212487,-0.013382820,-0.000817270
1778503978.273218155,4.300072193,1,0.238853904,0.230324529,22,6,1,1,0,0.001208333,0.001208333,0.000000000,0,0.113650313,1,1,0.002939433,0.003368083,-0.004190623,0.005402198,-0.011115598,-0.003516959,0.999917442,0.010728184,-0.022269199,-0.006915009,0.003751310,0.000992723,0.003083303
1778503978.373147964,4.400002003,0,0.000000000,0.000000000,20,18,1,1,0,0.000994085,0.000994085,0.000000000,0,0.113650313,1,1,0.002784075,0.004895953,-0.002999454,0.004822273,-0.012187818,-0.002974831,0.999909672,0.009574158,-0.024404548,-0.005833348,0.000231352,0.009513142,0.005402898
1778503978.473008633,4.499862671,0,0.000000000,0.000000000,24,13,1,1,0,0.001567028,0.001567028,0.000000000,0,0.113650313,1,1,0.003593134,0.007939841,-0.003318860,0.003635121,-0.014602117,-0.002565743,0.999883484,0.007197600,-0.029223643,-0.005026894,-0.001896442,0.023031367,0.003169205
1778503978.573187351,4.600041389,0,0.000000000,0.000000000,16,19,1,1,0,0.001697867,0.001697867,0.000000000,0,0.113650313,1,1,0.003786829,0.009215727,-0.002353771,0.006491384,-0.015395197,-0.002619940,0.999856983,0.012906732,-0.030824886,-0.005041675,-0.006073099,0.016692278,0.004877243
1778503978.673216343,4.700070381,0,0.000000000,0.000000000,24,4,1,1,0,0.001925000,0.001925000,0.000000000,0,0.113650313,1,1,0.003961564,0.007861215,-0.002432339,0.008845690,-0.014468936,-0.003558237,0.999849860,0.017594061,-0.029000543,-0.006862370,-0.005969466,-0.000589303,0.003520838
1778503978.773091793,4.799945831,0,0.000000000,0.000000000,19,16,1,1,0,0.002210604,0.002210604,0.000000000,0,0.113650313,1,1,0.004405902,0.008008362,-0.003804775,0.008728307,-0.016129270,-0.003100359,0.999827011,0.017363518,-0.032312703,-0.005921208,-0.008959967,-0.002413998,-0.000665804
1778503978.873227596,4.900081635,0,0.000000000,0.000000000,29,17,1,1,0,0.003212035,0.003212035,0.000000000,0,0.113650313,1,1,0.005375473,0.007875576,-0.004184253,0.009477507,-0.015451601,-0.003494157,0.999829593,0.018853960,-0.030969119,-0.006697499,-0.006277650,-0.007252668,-0.001280258
1778503978.973241806,5.000095844,1,0.235850970,0.297504380,22,20,1,1,0,0.005359943,0.005359943,0.000000000,0,0.113650313,1,1,0.007173967,0.005596442,-0.004965790,0.011440491,-0.011922138,-0.002775232,0.999859628,0.022820099,-0.023906707,-0.005278428,0.005290325,-0.022599805,-0.002492316
1778503979.073328733,5.100182772,0,0.000000000,0.000000000,31,6,1,1,0,0.003741792,0.003741792,0.000000000,0,0.113650313,1,1,0.005799577,0.006322131,-0.005238263,0.009881407,-0.013253543,-0.005169165,0.999849979,0.019631039,-0.026608406,-0.010078590,-0.003763524,-0.015275360,-0.003119702
1778503979.172373295,5.199227333,0,0.000000000,0.000000000,27,5,1,1,0,0.002290299,0.002290299,0.000000000,0,0.113650313,1,1,0.004513097,0.005334725,-0.006472654,0.008593749,-0.014525493,-0.005934380,0.999839958,0.017020400,-0.029152463,-0.011622404,-0.011365344,-0.015016766,-0.006040323
1778503979.273103952,5.299957991,0,0.000000000,0.000000000,14,8,1,1,0,0.000243787,0.000243787,0.000000000,0,0.113650313,1,1,0.002356955,0.005411566,-0.006507077,0.006274058,-0.015592563,-0.005111243,0.999845680,0.012393154,-0.031249536,-0.010030317,-0.020803971,-0.006018328,-0.004574752
1778503979.373091698,5.399945736,1,0.268557123,0.243605154,17,10,1,1,0,-0.001036972,-0.001036972,0.000000000,0,0.113650313,1,1,0.001063415,0.006150345,-0.003897040,0.004995867,-0.014751991,-0.003748700,0.999871675,0.009884324,-0.029541948,-0.007352314,-0.020744514,0.003544754,0.004308449
1778503979.474396706,5.501250744,0,0.000000000,0.000000000,20,3,1,1,0,-0.002546386,-0.002546386,0.000000000,0,0.113650313,1,1,-0.000154223,0.007152559,-0.002709405,0.003862316,-0.018844940,-0.002957352,0.999810584,0.007617197,-0.037714525,-0.005772150,-0.032054925,0.010920850,0.006072596
1778503979.573083878,5.599937916,0,0.000000000,0.000000000,26,3,1,1,0,-0.002519773,-0.002519773,0.000000000,0,0.113650313,1,1,-0.000406581,0.006980747,-0.003616271,0.005418040,-0.016614244,-0.000770045,0.999846998,0.010815020,-0.033237869,-0.001360573,-0.025424156,0.006548860,0.002520963
1778503979.675907373,5.702761412,0,0.000000000,0.000000000,26,1,1,1,0,-0.000524474,-0.000524474,0.000000000,0,0.113650313,1,1,0.001403797,0.005412122,-0.005937932,0.007951239,-0.014072175,-0.000826939,0.999869025,0.015884086,-0.028157534,-0.001430446,-0.010549808,-0.006242811,-0.003124515
1778503979.773267984,5.800122023,0,0.000000000,0.000000000,20,1,1,1,0,0.000361438,0.000361438,0.000000000,0,0.113650313,1,1,0.002211122,0.007268148,-0.008203916,0.007207674,-0.012182808,-0.001091521,0.999899214,0.014392073,-0.024381311,-0.002007802,-0.000927040,0.003169878,-0.007803274
1778503979.873273134,5.900127172,1,0.225797534,0.238766365,27,9,1,1,0,0.001390382,0.001390382,0.000000000,0,0.113650313,1,1,0.003327238,0.007700581,-0.010120458,0.006909679,-0.011781278,-0.002615448,0.999903304,0.013760660,-0.023598612,-0.005069013,0.005605314,0.003762300,-0.010561348
1778503979.971953630,5.998807669,0,0.000000000,0.000000000,15,24,1,1,0,0.002685849,0.002685849,0.000000000,0,0.113650313,1,1,0.004395877,0.007133886,-0.008773856,0.009218158,-0.009301152,-0.003122203,0.999909379,0.018380799,-0.018659262,-0.006073456,0.014399807,-0.005793205,-0.004622356
1778503980.073241711,6.100095749,0,0.000000000,0.000000000,16,10,1,1,0,0.004897124,0.004897124,0.000000000,0,0.113650313,1,1,0.006589582,0.005925035,-0.009387372,0.009381300,-0.008876610,-0.003606388,0.999910091,0.018700948,-0.017820232,-0.007046756,0.023592156,-0.012803698,-0.004946127
1778503980.172728539,6.199582577,0,0.000000000,0.000000000,28,15,1,1,0,0.005432598,0.005432598,0.000000000,0,0.113650313,1,1,0.007217646,0.005323149,-0.008478624,0.009037851,-0.011407732,-0.001473299,0.999892999,0.018045840,-0.022841641,-0.002740798,0.016950872,-0.013376246,-0.001917564
1778503980.272047520,6.298901558,0,0.000000000,0.000000000,12,26,1,1,0,0.003830403,0.003830403,0.000000000,0,0.113650313,1,1,0.005859087,0.004428641,-0.007725923,0.008876700,-0.014402808,-0.001622203,0.999855555,0.017712395,-0.028834250,-0.002989485,0.001203104,-0.014760524,-0.000203519
1778503980.373229027,6.400083065,0,0.000000000,0.000000000,25,16,1,1,0,0.001369359,0.001369359,0.000000000,0,0.113650313,1,1,0.003368705,0.003690974,-0.005871656,0.008065953,-0.015698399,0.000236816,0.999844210,0.016145484,-0.031393243,0.000727162,-0.014531832,-0.012805027,0.004071453
1778503980.473181248,6.500035286,0,0.000000000,0.000000000,22,15,1,1,0,-0.000510763,-0.000510763,0.000000000,0,0.113650313,1,1,0.001620231,0.003783188,-0.006247441,0.007258385,-0.016758065,-0.000362345,0.999833162,0.014510866,-0.033522076,-0.000481566,-0.022422060,-0.007353149,0.001858300
1778503980.573252201,6.600106239,0,0.000000000,0.000000000,15,19,1,1,0,-0.001277608,-0.001277608,0.000000000,0,0.113650313,1,1,0.000913127,0.004228172,-0.007661609,0.006356453,-0.016736133,-0.000847827,0.999839376,0.012689938,-0.033483925,-0.001483449,-0.022872162,-0.001159281,-0.002140940
1778503980.673189402,6.700043440,0,0.000000000,0.000000000,27,18,1,1,0,-0.004366983,-0.004366983,0.000000000,0,0.113650313,1,1,-0.002127044,0.006417771,-0.009491107,0.004462716,-0.016541945,-0.000810051,0.999852885,0.008902311,-0.033092293,-0.001473026,-0.030908211,0.013456421,-0.006507647
1778503980.773138285,6.799992323,0,0.000000000,0.000000000,21,23,1,1,0,-0.003483279,-0.003483279,0.000000000,0,0.113650313,1,1,-0.001498662,0.008224784,-0.007994214,0.004539999,-0.014301339,0.000094896,0.999887419,0.009085531,-0.028602495,0.000319757,-0.018484325,0.018771190,-0.000464765
1778503980.873104572,6.899958611,0,0.000000000,0.000000000,21,31,1,1,0,-0.003014909,-0.003014909,0.000000000,0,0.113650313,1,1,-0.001115316,0.009409760,-0.005805001,0.005297800,-0.014184427,0.000867258,0.999884985,0.010623457,-0.028360204,0.001885368,-0.013169494,0.018370705,0.005799212
1778503980.973246813,7.000100851,0,0.000000000,0.000000000,11,0,1,1,0,0.000895245,0.000895245,0.000000000,0,0.113650313,1,1,0.002525416,0.010764853,-0.005815440,0.005636386,-0.010477919,0.000061761,0.999929218,0.011275983,-0.020955193,0.000241682,0.012423056,0.017861542,0.005663622
1778503981.073112726,7.099966764,0,0.000000000,0.000000000,16,1,1,1,0,0.001202856,0.001202856,0.000000000,0,0.113650313,1,1,0.002857445,0.008741263,-0.003227534,0.008556791,-0.011993880,0.000507365,0.999891329,0.017129654,-0.023978769,0.001220228,0.009238131,-0.001845686,0.010498865
1778503981.172370434,7.199224472,1,0.235140619,0.317195872,15,10,1,1,0,0.002763666,0.002763666,0.000000000,0,0.113650313,1,1,0.004497490,0.007800633,-0.002113451,0.008524082,-0.013585951,0.001064375,0.999870806,0.017082010,-0.027153583,0.002360962,0.009612366,-0.007038508,0.010402039
1778503981.273253918,7.300107956,0,0.000000000,0.000000000,13,0,1,1,0,0.003788142,0.003788142,0.000000000,0,0.113650313,1,1,0.005406239,0.003089151,-0.000054472,0.011228642,-0.015141408,0.003334799,0.999816750,0.022566366,-0.030206970,0.007011667,0.005174242,-0.031329073,0.012752221
1778503981.373201847,7.400055885,0,0.000000000,0.000000000,19,0,1,1,0,0.005008463,0.005008463,0.000000000,0,0.113650313,1,1,0.006853698,0.002996706,0.000279038,0.008401012,-0.016689365,0.002122811,0.999823175,0.016880093,-0.033343338,0.004527818,0.001992879,-0.020059484,0.010458063
1778503981.473080873,7.499934912,0,0.000000000,0.000000000,30,11,1,1,0,0.004295776,0.004295776,0.000000000,0,0.113650313,1,1,0.006346863,0.003216708,-0.001370004,0.006729149,-0.017473136,0.000157475,0.999824676,0.013470073,-0.034945138,0.000550390,-0.006456535,-0.010360721,0.004072707
1778503981.572352171,7.599206209,0,0.000000000,0.000000000,14,21,1,1,0,0.003987871,0.003987871,0.000000000,0,0.113650313,1,1,0.006195372,0.003108500,-0.003046745,0.006474487,-0.017441640,-0.002372460,0.999824105,0.012872138,-0.034914959,-0.004521005,-0.010303205,-0.005356560,-0.001523220
1778503981.673105240,7.699959278,0,0.000000000,0.000000000,16,12,1,1,0,0.000602606,0.000602606,0.000000000,0,0.113650313,1,1,0.003013087,0.002692134,-0.004574907,0.006173555,-0.019231742,-0.002732044,0.999792260,0.012248843,-0.038498736,-0.005229394,-0.028318182,-0.003293550,-0.005769842
1778503981.773186207,7.800040245,0,0.000000000,0.000000000,18,16,1,1,0,-0.001100095,-0.001100095,0.000000000,0,0.113650313,1,1,0.001139668,0.003624074,-0.005727603,0.005395848,-0.017584590,-0.001388221,0.999829855,0.010747896,-0.035185438,-0.002587806,-0.030319551,0.004347788,-0.006950548
1778503981.873286963,7.900141001,0,0.000000000,0.000000000,15,3,1,1,0,-0.002998064,-0.002998064,0.000000000,0,0.113650313,1,1,-0.000926276,0.002857353,-0.005133427,0.006452416,-0.017655410,0.001758299,0.999821765,0.012973060,-0.035289159,0.003746152,-0.033727687,-0.001247752,-0.003789459
1778503981.973145962,8.000000000,0,0.000000000,0.000000000,29,3,1,1,0,-0.000351979,-0.000351979,0.000000000,0,0.113650313,1,1,0.001569415,0.003485295,-0.007171750,0.006156102,-0.015085234,0.001439448,0.999866224,0.012359918,-0.030153278,0.003065641,-0.013256864,0.002864919,-0.006979470
1778503982.073133707,8.099987745,0,0.000000000,0.000000000,20,14,1,1,0,-0.000233138,-0.000233138,0.000000000,0,0.113650313,1,1,0.001772960,0.004411836,-0.006344485,0.004639178,-0.014595331,-0.001321757,0.999881847,0.009242749,-0.029203628,-0.002508854,-0.009405648,0.010264994,-0.002822712
1778503982.171370029,8.198224068,0,0.000000000,0.000000000,25,1,1,1,0,0.001433229,0.001433229,0.000000000,0,0.113650313,1,1,0.003466905,0.005527744,-0.006704654,0.005629767,-0.015001317,-0.000879059,0.999871238,0.011237007,-0.030013175,-0.001589699,-0.001935115,0.011489798,-0.002976944
1778503982.273230791,8.300084829,0,0.000000000,0.000000000,11,2,1,1,0,0.000941672,0.000941672,0.000000000,0,0.113650313,1,1,0.003165660,0.006949636,-0.005138182,0.005228310,-0.017125432,-0.001405355,0.999838692,0.010413099,-0.034266740,-0.002632730,-0.009558245,0.015340218,0.001485509
1778503982.373081923,8.399935961,0,0.000000000,0.000000000,24,5,1,1,0,0.000604123,0.000604123,0.000000000,0,0.113650313,1,1,0.002939897,0.006807008,-0.004415581,0.006987422,-0.018741132,-0.001194763,0.999799239,0.013937506,-0.037500224,-0.002128640,-0.016238238,0.007237932,0.002589363
1778503982.473261595,8.500115633,0,0.000000000,0.000000000,19,20,1,1,0,-0.000595941,-0.000595941,0.000000000,0,0.113650313,1,1,0.001827138,0.006072732,-0.002472006,0.007218716,-0.018640800,-0.000932770,0.999799750,0.014410285,-0.037296248,-0.001597152,-0.022679504,0.000704997,0.006976175
1778503982.573159218,8.600013256,0,0.000000000,0.000000000,41,7,1,1,0,-0.002012217,-0.002012217,0.000000000,0,0.113650313,1,1,0.000238075,0.005052360,-0.002075678,0.008957694,-0.020120828,0.001583257,0.999756173,0.017990246,-0.040214317,0.003529074,-0.031090629,-0.008913601,0.006010647
1778503982.674051523,8.700905561,0,0.000000000,0.000000000,25,8,1,1,0,-0.003934403,-0.003934403,0.000000000,0,0.113650313,1,1,-0.001633341,0.004968154,-0.000977209,0.008320092,-0.019416441,-0.001397848,0.999775887,0.016595461,-0.038857216,-0.002473846,-0.034665847,-0.007252847,0.007366752
1778503982.773245096,8.800099134,0,0.000000000,0.000000000,24,2,1,1,0,-0.002695962,-0.002695962,0.000000000,0,0.113650313,1,1,-0.000511609,0.005188726,-0.001494197,0.008988568,-0.017783329,-0.001664230,0.999800075,0.017926668,-0.035596982,-0.003010012,-0.022999381,-0.007740548,0.005054223
1778503982.871661425,8.898515463,0,0.000000000,0.000000000,26,12,1,1,0,-0.004672234,-0.004672234,0.000000000,0,0.113650313,1,1,-0.002244338,0.005554574,-0.001410044,0.008314212,-0.019736371,-0.003703073,0.999763790,0.016491959,-0.039535293,-0.007081806,-0.030123446,-0.004004155,0.003945001
1778503982.972379684,8.999233723,0,0.000000000,0.000000000,15,0,1,1,0,-0.003705295,-0.003705295,0.000000000,0,0.113650313,1,1,-0.001570065,0.004984060,-0.000658058,0.007793088,-0.017720938,-0.001195402,0.999811886,0.015551281,-0.035461272,-0.002115484,-0.020802483,-0.006054946,0.005780516
1778503983.073327541,9.100181580,0,0.000000000,0.000000000,15,12,1,1,0,-0.004064844,-0.004064844,0.000000000,0,0.113650313,1,1,-0.001884667,0.005420649,-0.002510401,0.007135851,-0.017945060,-0.000733595,0.999813241,0.014252373,-0.035901600,-0.001211591,-0.019440707,-0.001639110,-0.000528978
1778503983.173144817,9.199998856,0,0.000000000,0.000000000,27,3,1,1,0,-0.002577009,-0.002577009,0.000000000,0,0.113650313,1,1,-0.000194491,0.006531160,-0.002587050,0.006826413,-0.019137373,-0.002466009,0.999790518,0.013565949,-0.038309766,-0.004673151,-0.014490058,0.003793625,-0.000363927
1778503983.273422480,9.300276518,0,0.000000000,0.000000000,20,1,1,1,0,-0.002694726,-0.002694726,0.000000000,0,0.113650313,1,1,-0.000496565,0.006185726,-0.002064731,0.006978459,-0.018289221,-0.000485337,0.999808267,0.013946273,-0.036586363,-0.000715706,-0.015464517,0.000897118,0.001327746
1778503983.372285843,9.399139881,0,0.000000000,0.000000000,28,14,1,1,0,-0.002918418,-0.002918418,0.000000000,0,0.113650313,1,1,-0.000646988,0.004525318,-0.003009101,0.007952082,-0.018213873,-0.002084360,0.999800317,0.015836248,-0.036461701,-0.003880800,-0.015350074,-0.008493029,-0.001588956
1778503983.473210335,9.500064373,0,0.000000000,0.000000000,29,2,1,1,0,-0.003756557,-0.003756557,0.000000000,0,0.113650313,1,1,-0.001512619,0.005799786,-0.003383416,0.006570339,-0.017824869,-0.001745796,0.999818012,0.013084748,-0.035673758,-0.003258805,-0.017396118,0.001207073,-0.002003573
1778503983.573165417,9.600019455,0,0.000000000,0.000000000,34,9,1,1,0,-0.002739033,-0.002739033,0.000000000,0,0.113650313,1,1,-0.000406176,0.005518858,-0.005286498,0.006370955,-0.016913944,-0.004369325,0.999827104,0.012599468,-0.033884196,-0.008526620,-0.009049595,0.000600903,-0.006274839
1778503983.673369408,9.700223446,0,0.000000000,0.000000000,35,15,1,1,0,-0.002261104,-0.002261104,0.000000000,0,0.113650313,1,1,0.000112291,0.007054059,-0.004684946,0.005539198,-0.017779211,-0.003577852,0.999820192,0.010956342,-0.035599184,-0.006961919,-0.009249506,0.009109566,-0.002921005
1778503983.774643660,9.801497698,0,0.000000000,0.000000000,26,4,1,1,0,-0.002398032,-0.002398032,0.000000000,0,0.113650313,1,1,0.000228077,0.005502500,-0.005740421,0.007081311,-0.020195450,-0.003217099,0.999765797,0.014041303,-0.040438024,-0.006151739,-0.014560465,-0.002444747,-0.005619121
1778503983.872386217,9.899240255,0,0.000000000,0.000000000,31,12,1,1,0,-0.001812880,-0.001812880,0.000000000,0,0.113650313,1,1,0.000782707,0.005851959,-0.006401827,0.006776103,-0.019968266,-0.003641851,0.999771019,0.013414786,-0.039987399,-0.007017087,-0.014793226,0.000801741,-0.005599456
1778503983.973269463,10.000123501,0,0.000000000,0.000000000,20,30,1,1,0,-0.002401755,-0.002401755,0.000000000,0,0.113650313,1,1,0.000287404,0.005225190,-0.005595368,0.006963361,-0.021823989,-0.002754240,0.999733784,0.013816420,-0.043688612,-0.005208070,-0.022511809,-0.002132677,-0.003240048
1778503984.073223352,10.100077391,0,0.000000000,0.000000000,10,3,1,1,0,-0.002690233,-0.002690233,0.000000000,0,0.113650313,1,1,-0.000128941,0.006237582,-0.003369888,0.007016340,-0.019997488,-0.004297651,0.999766173,0.013869083,-0.040056642,-0.008319443,-0.022767201,0.002796759,0.004347028
1778503984.173189640,10.200043678,1,0.237461061,0.235376838,23,5,1,1,0,-0.001649828,-0.001649828,0.000000000,0,0.113650313,1,1,0.000698913,0.006594184,-0.003047811,0.006900071,-0.019091697,-0.001564507,0.999792703,0.013748008,-0.038206364,-0.002866993,-0.016554113,0.002557605,0.004205226
1778503984.273325682,10.300179720,1,0.239357661,0.235376838,19,20,1,1,0,-0.000718954,-0.000718954,0.000000000,0,0.113650313,1,1,0.001544352,0.005210523,-0.003109525,0.008166046,-0.018552773,-0.001057866,0.999793974,0.016301429,-0.037123706,-0.001813541,-0.012162977,-0.006586290,0.003345413
1778503984.373239756,10.400093794,0,0.000000000,0.000000000,19,6,1,1,0,0.000333310,0.000333310,0.000000000,0,0.113650313,1,1,0.002475013,0.002624649,-0.003594428,0.009149905,-0.018592592,0.000972986,0.999784801,0.018345751,-0.037167933,0.002287376,-0.008929359,-0.018725498,0.001396820
1778503984.473185778,10.500039816,0,0.000000000,0.000000000,28,2,1,1,0,0.000545046,0.000545046,0.000000000,0,0.113650313,1,1,0.002666171,0.001550338,-0.003841630,0.007481737,-0.017971616,0.000781389,0.999810199,0.014998964,-0.035932450,0.001832583,-0.007869780,-0.015142230,0.000579274
1778503984.573350191,10.600204229,0,0.000000000,0.000000000,18,3,1,1,0,0.002062383,0.002062383,0.000000000,0,0.113650313,1,1,0.004058430,0.001398051,-0.003656343,0.006282835,-0.016587227,0.000370211,0.999842614,0.012583228,-0.033170663,0.000949257,0.000144154,-0.009803775,0.001414214
1778503984.673269510,10.700123549,0,0.000000000,0.000000000,13,7,1,1,0,0.002559159,0.002559159,0.000000000,0,0.113650313,1,1,0.004532473,0.001818108,-0.002557253,0.004052724,-0.015960172,-0.000748530,0.999864135,0.008084662,-0.031927498,-0.001368190,0.001023114,0.003400109,0.004387773
1778503984.773238897,10.800092936,0,0.000000000,0.000000000,29,11,1,1,0,0.002937748,0.002937748,0.000000000,0,0.113650313,1,1,0.005113688,0.003448308,-0.002032563,0.003275839,-0.016807378,-0.003353304,0.999847757,0.006441649,-0.033637951,-0.006599251,0.000275309,0.014419599,0.004658994
1778503984.873398066,10.900252104,0,0.000000000,0.000000000,28,9,1,1,0,0.003773942,0.003773942,0.000000000,0,0.113650313,1,1,0.005934724,0.003589348,-0.001895408,0.003757939,-0.017156411,-0.002393018,0.999842892,0.007437038,-0.034332162,-0.004659101,0.000732051,0.013708088,0.004066342
1778503984.973233223,11.000087261,0,0.000000000,0.000000000,27,6,1,1,0,0.003714404,0.003714404,0.000000000,0,0.113650313,1,1,0.005998071,0.005935982,-0.001921090,0.003155102,-0.017275575,-0.004182506,0.999837040,0.006168393,-0.034578802,-0.008259668,-0.001625908,0.023676733,0.003079765
1778503985.073275566,11.100129604,0,0.000000000,0.000000000,13,21,1,1,0,0.003710660,0.003710660,0.000000000,0,0.113650313,1,1,0.006039385,0.005216668,-0.002758520,0.004055958,-0.017701118,-0.004111855,0.999826641,0.007970030,-0.035436870,-0.008083857,-0.003510331,0.015828357,0.000450468
1778503985.173249483,11.200103521,0,0.000000000,0.000000000,24,0,1,1,0,0.005874939,0.005874939,0.000000000,0,0.113650313,1,1,0.007993930,0.004019688,-0.003068488,0.005669274,-0.016371474,-0.002254376,0.999847364,0.011269290,-0.032769375,-0.004324771,0.005951914,0.003787410,-0.000241100
1778503985.273248911,11.300102949,0,0.000000000,0.000000000,20,0,1,1,0,0.007737014,0.007737014,0.000000000,0,0.113650313,1,1,0.009913939,0.004408504,-0.004159248,0.005474358,-0.016025646,-0.003515691,0.999850414,0.010840190,-0.032090497,-0.006858455,0.010057821,0.005665129,-0.002540867
1778503985.372117758,11.398971796,0,0.000000000,0.000000000,17,13,1,1,0,0.004954970,0.004954970,0.000000000,0,0.113650313,1,1,0.007347526,0.006595649,-0.003556493,0.004176569,-0.018346324,-0.003564691,0.999816614,0.008226448,-0.036723949,-0.006979589,-0.007681574,0.016012820,-0.000880133
1778503985.473427296,11.500281334,0,0.000000000,0.000000000,35,7,1,1,0,0.005790086,0.005790086,0.000000000,0,0.113650313,1,1,0.008086357,0.005262537,-0.005315348,0.005264714,-0.017351590,-0.002783951,0.999831713,0.010437530,-0.034733636,-0.005387537,-0.003644331,0.005991321,-0.004929188
1778503985.571529627,11.598383665,0,0.000000000,0.000000000,28,3,1,1,0,0.002805792,0.002805792,0.000000000,0,0.113650313,1,1,0.005207079,0.005661276,-0.005068666,0.005338742,-0.018096295,-0.003692040,0.999815178,0.010549006,-0.036233250,-0.007194277,-0.017238653,0.006955533,-0.003467340
1778503985.673171282,11.700025320,0,0.000000000,0.000000000,18,33,1,1,0,-0.000781169,-0.000781169,0.000000000,0,0.113650313,1,1,0.001478399,0.006532133,-0.003598372,0.004843840,-0.019868742,-0.003107035,0.999786035,0.009569855,-0.039769565,-0.006025059,-0.032819412,0.010546803,0.000683325
1778503985.772351503,11.799205542,0,0.000000000,0.000000000,26,6,1,1,0,-0.003137615,-0.003137615,0.000000000,0,0.113650313,1,1,-0.000646030,0.004876665,-0.003386035,0.007643772,-0.020498586,-0.002251131,0.999758127,0.015204939,-0.041033183,-0.004191341,-0.036472796,-0.004900737,0.000683313
1778503985.872428179,11.899282217,0,0.000000000,0.000000000,27,6,1,1,0,-0.004774375,-0.004774375,0.000000000,0,0.113650313,1,1,-0.002405911,0.003089692,-0.003269187,0.008682289,-0.019997423,-0.001032451,0.999761799,0.017333892,-0.040013925,-0.001718539,-0.035459608,-0.015036118,0.000673367
1778503985.973195553,12.000049591,0,0.000000000,0.000000000,30,2,1,1,0,-0.004833308,-0.004833308,0.000000000,0,0.113650313,1,1,-0.002524610,0.001427894,-0.004057772,0.008504248,-0.019619076,-0.000485179,0.999771241,0.016999477,-0.039247503,-0.000636935,-0.027937318,-0.019343226,-0.001436104
1778503986.071636438,12.098490477,0,0.000000000,0.000000000,32,12,1,1,0,-0.005970657,-0.005970657,0.000000000,0,0.113650313,1,1,-0.003769281,0.002154622,-0.003603878,0.005790444,-0.017988113,-0.001273752,0.999820622,0.011540716,-0.035992295,-0.002340247,-0.024573769,-0.005760846,0.000740577
1778503986.172289371,12.199143410,0,0.000000000,0.000000000,22,1,1,1,0,-0.005505857,-0.005505857,0.000000000,0,0.113650313,1,1,-0.003173115,0.002347884,-0.003750320,0.005024375,-0.018819294,-0.002383001,0.999807437,0.009964353,-0.037664190,-0.004579237,-0.017652425,-0.000021868,0.000320236
1778503986.273135424,12.299989462,0,0.000000000,0.000000000,28,9,1,1,0,-0.004022693,-0.004022693,0.000000000,0,0.113650313,1,1,-0.001887728,0.002404414,-0.003474439,0.004710253,-0.016785896,-0.002075452,0.999845858,0.009354791,-0.033592486,-0.003994398,-0.005799842,0.002849265,0.001594971
1778503986.373342752,12.400196791,0,0.000000000,0.000000000,12,22,1,1,0,-0.002338083,-0.002338083,0.000000000,0,0.113650313,1,1,-0.000331737,0.002909574,-0.001285246,0.003235188,-0.016397264,-0.001128573,0.999859685,0.006435964,-0.032803112,-0.002151892,0.001615286,0.009240080,0.007126802
1778503986.473289728,12.500143766,0,0.000000000,0.000000000,25,9,1,1,0,-0.001470337,-0.001470337,0.000000000,0,0.113650313,1,1,0.000617122,0.004876489,-0.000566596,0.002498310,-0.016018690,-0.001972492,0.999866626,0.004935315,-0.032048449,-0.003866414,0.005600274,0.019752315,0.007568165
1778503986.573180914,12.600034952,0,0.000000000,0.000000000,15,1,1,1,0,0.001178907,0.001178907,0.000000000,0,0.113650313,1,1,0.003240139,0.006402195,-0.001457031,0.002729882,-0.015475944,-0.002976049,0.999872085,0.005369551,-0.030969127,-0.005869691,0.015402546,0.023526008,0.004086856
1778503986.673394918,12.700248957,0,0.000000000,0.000000000,26,13,1,1,0,0.002755100,0.002755100,0.000000000,0,0.113650313,1,1,0.004910307,0.007518176,0.001259241,0.004057481,-0.016255903,-0.001805648,0.999858001,0.008059455,-0.032527578,-0.003480716,0.014312213,0.020059874,0.009391189
1778503986.773239851,12.800093889,1,0.241955262,0.271250005,20,5,1,1,0,0.003941012,0.003941012,0.000000000,0,0.113650313,1,1,0.005970149,0.006453949,-0.000149548,0.006010468,-0.016130113,-0.001772272,0.999850265,0.011968484,-0.032282307,-0.003351867,0.016053697,0.008464577,0.004209995
1778503986.873270988,12.900125027,0,0.000000000,0.000000000,12,8,1,1,0,0.005992730,0.005992730,0.000000000,0,0.113650313,1,1,0.008210798,0.007066637,-0.000138617,0.006175511,-0.017388679,-0.002427140,0.999826788,0.012272215,-0.034808341,-0.004641500,0.014230507,0.006590585,0.002681891
1778503986.973303318,13.000157356,0,0.000000000,0.000000000,17,1,1,1,0,0.004892519,0.004892519,0.000000000,0,0.113650313,1,1,0.007165915,0.004975078,-0.000373538,0.007750308,-0.019156411,-0.001544667,0.999785266,0.015450075,-0.038337929,-0.002793790,0.000103091,-0.007845961,0.000762354
1778503987.073236465,13.100090504,0,0.000000000,0.000000000,23,10,1,1,0,0.001470701,0.001470701,0.000000000,0,0.113650313,1,1,0.003864331,0.003187805,0.000488025,0.007751371,-0.021007064,-0.001511374,0.999748136,0.015449603,-0.042039359,-0.002698707,-0.020387454,-0.014525062,0.001966783
1778503987.172913551,13.199767590,0,0.000000000,0.000000000,16,20,1,1,0,-0.000900966,-0.000900966,0.000000000,0,0.113650313,1,1,0.001482801,0.001225773,0.000878953,0.008010574,-0.020617654,-0.002698250,0.999751700,0.015920142,-0.041280022,-0.005069182,-0.028140174,-0.019856850,0.002219315
1778503987.273405075,13.300259113,0,0.000000000,0.000000000,22,16,1,1,0,-0.003430979,-0.003430979,0.000000000,0,0.113650313,1,1,-0.001077780,-0.000266263,0.000051093,0.006517708,-0.020362339,-0.002506191,0.999768280,0.012941441,-0.040759195,-0.004749751,-0.033054888,-0.017577233,-0.000354228
1778503987.373304129,13.400158167,0,0.000000000,0.000000000,30,11,1,1,0,-0.004465028,-0.004465028,0.000000000,0,0.113650313,1,1,-0.002275451,0.001370366,0.000086324,0.003585098,-0.019075189,-0.000666701,0.999811402,0.007148674,-0.038157222,-0.001197249,-0.028796145,0.001554579,0.000353081
1778503987.473250389,13.500104427,0,0.000000000,0.000000000,22,2,1,1,0,-0.002715657,-0.002715657,0.000000000,0,0.113650313,1,1,-0.000592324,0.003123528,-0.000543633,0.002899429,-0.017014380,-0.002696336,0.999847405,0.005709560,-0.034045780,-0.005296280,-0.010996768,0.013491617,-0.000637256
1778503987.573381662,13.600235701,1,0.244836977,0.262346881,28,13,1,1,0,-0.001309484,-0.001309484,0.000000000,0,0.113650313,1,1,0.000765048,0.002642959,-0.001747124,0.003469360,-0.017003762,-0.001158337,0.999848736,0.006902326,-0.034016976,-0.002199614,-0.002257314,0.010083416,-0.003551151
1778503987.673301935,13.700155973,0,0.000000000,0.000000000,23,0,1,1,0,0.001467143,0.001467143,0.000000000,0,0.113650313,1,1,0.003376173,0.001489541,-0.001493926,0.004756424,-0.015800036,-0.000282758,0.999863818,0.009507509,-0.031603719,-0.000415344,0.010069504,0.002210149,-0.001681739
1778503987.773286343,13.800140381,0,0.000000000,0.000000000,19,16,1,1,0,0.001937511,0.001937511,0.000000000,0,0.113650313,1,1,0.003747265,0.003030291,-0.002406893,0.003430333,-0.017129384,0.001035569,0.999846861,0.006899195,-0.034253116,0.002189627,0.006426355,0.012124351,-0.003790894
1778503987.873467445,13.900321484,1,0.238283919,0.262346881,20,3,1,1,0,0.003196574,0.003196574,0.000000000,0,0.113650313,1,1,0.005122443,0.003759892,-0.002530801,0.003692585,-0.016146668,-0.000523853,0.999862678,0.007371151,-0.032298385,-0.000928801,0.011124851,0.014086226,-0.003196556
1778503987.974042416,14.000896454,0,0.000000000,0.000000000,28,5,1,1,0,0.003295698,0.003295698,0.000000000,0,0.113650313,1,1,0.005383908,0.006072903,-0.000773121,0.004067029,-0.016475068,-0.002104522,0.999853791,0.008067997,-0.032968409,-0.004076646,0.007037858,0.019206415,0.001931567
1778503988.073270082,14.100124121,0,0.000000000,0.000000000,14,1,1,1,0,0.007773779,0.007773779,0.000000000,0,0.113650313,1,1,0.009659859,0.006129170,-0.000112507,0.004939604,-0.014034683,-0.002693341,0.999885680,0.009806506,-0.028096461,-0.005249511,0.025665213,0.013073190,0.003634817
1778503988.171823025,14.198677063,0,0.000000000,0.000000000,18,26,1,1,0,0.004942775,0.004942775,0.000000000,0,0.113650313,1,1,0.007161734,0.006439409,0.001476718,0.004933875,-0.018507670,-0.002145306,0.999814243,0.009793380,-0.037038101,-0.004110016,0.001319584,0.010636495,0.005579047
1778503988.273315668,14.300169706,1,0.257320905,0.282114911,31,3,1,1,0,0.005122573,0.005122573,0.000000000,0,0.113650313,1,1,0.007342940,0.005693172,0.001356991,0.007011662,-0.017554758,-0.004065081,0.999813054,0.013887012,-0.035167208,-0.007887426,0.000779104,0.000204677,0.003854576
1778503988.372422695,14.399276733,0,0.000000000,0.000000000,9,6,1,1,0,0.004806912,0.004806912,0.000000000,0,0.113650313,1,1,0.006988039,0.004812321,0.000993712,0.007709171,-0.018441787,-0.001623642,0.999798896,0.015366427,-0.036909569,-0.002964313,-0.004131280,-0.007535863,0.001909605
1778503988.474772215,14.501626253,0,0.000000000,0.000000000,28,22,1,1,0,0.003219980,0.003219980,0.000000000,0,0.113650313,1,1,0.005694506,0.005059894,0.000047999,0.006652527,-0.020374436,-0.003715536,0.999763383,0.013161836,-0.040799984,-0.007164255,-0.014714417,-0.004183608,-0.001283312
1778503988.573339701,14.600193739,0,0.000000000,0.000000000,24,1,1,1,0,0.002572738,0.002572738,0.000000000,0,0.113650313,1,1,0.004987160,0.003997679,-0.000361639,0.006184035,-0.020287647,-0.002640766,0.999771572,0.012268517,-0.040609848,-0.005033578,-0.017804738,-0.007255689,-0.002157369
1778503988.673354149,14.700208187,0,0.000000000,0.000000000,15,7,1,1,0,0.003412443,0.003412443,0.000000000,0,0.113650313,1,1,0.005820578,0.003472261,-0.000892479,0.006580803,-0.020807524,-0.001462855,0.999760771,0.013109318,-0.041636376,-0.002653452,-0.015252732,-0.008165847,-0.002955076
1778503988.773343563,14.800197601,0,0.000000000,0.000000000,22,15,1,1,0,0.002220487,0.002220487,0.000000000,0,0.113650313,1,1,0.004702243,0.003777977,-0.000830709,0.005502316,-0.020926526,-0.002743068,0.999762112,0.010896982,-0.041885529,-0.005259180,-0.020832609,-0.002628015,-0.001961993
1778503988.873333454,14.900187492,0,0.000000000,0.000000000,22,15,1,1,0,-0.000932104,-0.000932104,0.000000000,0,0.113650313,1,1,0.001488510,0.003914908,-0.000300250,0.005060006,-0.020578883,-0.002545431,0.999772187,0.010021609,-0.041185792,-0.004885607,-0.031085651,0.000216646,-0.000233910
1778503988.972671270,14.999525309,0,0.000000000,0.000000000,32,23,1,1,0,-0.001479830,-0.001479830,0.000000000,0,0.113650313,1,1,0.000777476,0.003575162,-0.000759342,0.005838991,-0.018283548,-0.003046157,0.999811152,0.011572398,-0.036603937,-0.005881623,-0.022893600,-0.001953803,-0.000924456
1778503989.073457003,15.100311041,0,0.000000000,0.000000000,27,1,1,1,0,-0.000097322,-0.000097322,0.000000000,0,0.113650313,1,1,0.001906523,0.001483508,-0.001141627,0.006706078,-0.016243307,-0.001687347,0.999844156,0.013362709,-0.032509908,-0.003157984,-0.007227494,-0.011876454,-0.001229713
1778503989.171523571,15.198377609,0,0.000000000,0.000000000,27,18,1,1,0,-0.000281759,-0.000281759,0.000000000,0,0.113650313,1,1,0.001891850,0.000499995,-0.000717881,0.006626430,-0.016223495,-0.003018640,0.999841876,0.013160142,-0.032487579,-0.005824425,-0.004344431,-0.013006671,0.000158939
1778503989.273257256,15.300111294,0,0.000000000,0.000000000,13,13,1,1,0,0.003389238,0.003389238,0.000000000,0,0.113650313,1,1,0.005358629,0.002103952,-0.003043414,0.003996950,-0.013376418,-0.005159618,0.999889231,0.007857882,-0.026794324,-0.010215007,0.018435209,0.003949601,-0.004900002
1778503989.372211456,15.399065495,0,0.000000000,0.000000000,30,7,1,1,0,0.005035363,0.005035363,0.000000000,0,0.113650313,1,1,0.007238588,0.003027639,-0.003334919,0.002686608,-0.016854681,-0.003407398,0.999848534,0.005260557,-0.033728960,-0.006727077,0.016160928,0.011520796,-0.004629782
1778503989.473323345,15.500177383,0,0.000000000,0.000000000,17,21,1,1,0,0.004760483,0.004760483,0.000000000,0,0.113650313,1,1,0.007090507,0.004982248,-0.003105562,0.001781856,-0.017449701,-0.004489369,0.999836076,0.003408536,-0.034916774,-0.008920635,0.008847927,0.021563622,-0.003032533
1778503989.573283911,15.600137949,0,0.000000000,0.000000000,28,19,1,1,0,0.005154617,0.005154617,0.000000000,0,0.113650313,1,1,0.007629718,0.004827201,-0.003664447,0.003497097,-0.018997300,-0.004251180,0.999804381,0.006836299,-0.038026064,-0.008373977,0.003959494,0.015174826,-0.004363373
1778503989.673495054,15.700349092,0,0.000000000,0.000000000,20,1,1,1,0,0.007446279,0.007446279,0.000000000,0,0.113650313,1,1,0.009841449,0.006193822,-0.005496683,0.003304288,-0.017464456,-0.004285426,0.999832841,0.006461778,-0.034958515,-0.008459274,0.010402127,0.017600964,-0.007279320
1778503989.773824930,15.800678968,0,0.000000000,0.000000000,25,16,1,1,0,0.004789397,0.004789397,0.000000000,0,0.113650313,1,1,0.007544843,0.007248926,-0.006214253,0.002650484,-0.020265466,-0.006218394,0.999771783,0.005051898,-0.040565770,-0.012336986,-0.008808344,0.020236842,-0.008128413
1778503989.872545004,15.899399042,0,0.000000000,0.000000000,18,1,1,1,0,0.006358927,0.006358927,0.000000000,0,0.113650313,1,1,0.009004721,0.007391694,-0.005972605,0.004459416,-0.018810372,-0.006639796,0.999791076,0.008673440,-0.037681019,-0.013118740,-0.002572323,0.013349668,-0.005116074
1778503989.973789454,16.000643492,0,0.000000000,0.000000000,14,16,1,1,0,0.006391802,0.006391802,0.000000000,0,0.113650313,1,1,0.008852599,0.007067483,-0.006006638,0.005609289,-0.017801263,-0.006686959,0.999803448,0.010985513,-0.035678116,-0.013180353,-0.002771820,0.005949424,-0.004299906
1778503990.073364019,16.100218058,0,0.000000000,0.000000000,20,0,1,1,0,0.008732100,0.008732100,0.000000000,0,0.113650313,1,1,0.011020904,0.005162052,-0.006473437,0.006755429,-0.016661212,-0.003356479,0.999832737,0.013404615,-0.033368392,-0.006490386,0.006971826,-0.007156748,-0.004016902
1778503990.173349380,16.200203419,0,0.000000000,0.000000000,24,24,1,1,0,0.005824635,0.005824635,0.000000000,0,0.113650313,1,1,0.008316247,0.005746569,-0.004371308,0.004806237,-0.018778543,-0.004638346,0.999801356,0.009443177,-0.037603072,-0.009100901,-0.010112069,0.000300265,0.001650652
1778503990.273458242,16.300312281,0,0.000000000,0.000000000,26,10,1,1,0,0.003658611,0.003658611,0.000000000,0,0.113650313,1,1,0.006317520,0.006348910,-0.004837032,0.004259685,-0.020261938,-0.005066364,0.999772795,0.008319066,-0.040568958,-0.009966172,-0.019819358,0.004718702,-0.000208071
1778503990.373303890,16.400157928,0,0.000000000,0.000000000,28,5,1,1,0,0.000770460,0.000770460,0.000000000,0,0.113650313,1,1,0.003267691,0.003955980,-0.003499291,0.006761101,-0.019436729,-0.004230387,0.999779278,0.013365293,-0.038931916,-0.008202386,-0.027691000,-0.011414173,0.002894213
1778503990.473261595,16.500115633,0,0.000000000,0.000000000,26,7,1,1,0,0.000140862,0.000140862,0.000000000,0,0.113650313,1,1,0.002533840,0.003757973,-0.001377085,0.005273938,-0.018497356,-0.005282316,0.999801045,0.010357654,-0.037051546,-0.010374730,-0.022615843,-0.006390284,0.008022444
1778503990.573434114,16.600288153,0,0.000000000,0.000000000,23,1,1,1,0,-0.000627291,-0.000627291,0.000000000,0,0.113650313,1,1,0.001742414,0.003572096,-0.000815838,0.004791657,-0.019731068,-0.002605015,0.999790447,0.009486043,-0.039489093,-0.005023787,-0.022570834,-0.003958879,0.007557688
1778503990.673488855,16.700342894,0,0.000000000,0.000000000,30,15,1,1,0,-0.000242899,-0.000242899,0.000000000,0,0.113650313,1,1,0.002224481,0.003585191,0.000200824,0.004300270,-0.020754235,-0.003264055,0.999770031,0.008470483,-0.041538943,-0.006353635,-0.019172834,-0.000090691,0.007977717
1778503990.772544146,16.799398184,0,0.000000000,0.000000000,35,10,1,1,0,0.000096550,0.000096550,0.000000000,0,0.113650313,1,1,0.002471733,0.001100791,0.000719138,0.005707530,-0.020470054,-0.002727418,0.999770455,0.011310512,-0.040973307,-0.005224326,-0.016337989,-0.011730479,0.007234569
1778503990.872375965,16.899230003,0,0.000000000,0.000000000,24,24,1,1,0,-0.001629712,-0.001629712,0.000000000,0,0.113650313,1,1,0.000724732,0.000683447,0.001998945,0.004734686,-0.019843045,-0.004180147,0.999783158,0.009308903,-0.039727517,-0.008177124,-0.020938857,-0.007056584,0.008890914
1778503990.973385811,17.000239849,0,0.000000000,0.000000000,16,19,1,1,0,-0.000079875,-0.000079875,0.000000000,0,0.113650313,1,1,0.002136862,0.002314504,0.001280306,0.002782019,-0.017974260,-0.003945256,0.999826796,0.005424784,-0.035972003,-0.007794258,-0.007402508,0.007354508,0.005515989
1778503991.073250294,17.100104332,0,0.000000000,0.000000000,32,21,1,1,0,-0.000319742,-0.000319742,0.000000000,0,0.113650313,1,1,0.001877702,0.003603201,-0.001268461,0.001963753,-0.017337871,-0.003164147,0.999842753,0.003819476,-0.034689673,-0.006263013,-0.004758853,0.015132677,-0.002277895
1778503991.173465490,17.200319529,0,0.000000000,0.000000000,23,0,1,1,0,0.002794628,0.002794628,0.000000000,0,0.113650313,1,1,0.004948499,0.004443521,-0.002832024,0.002264080,-0.016383162,-0.003002561,0.999858715,0.004431533,-0.032781161,-0.005933310,0.010431935,0.017102411,-0.005100140
1778503991.273787498,17.300641537,0,0.000000000,0.000000000,14,26,1,1,0,0.002512268,0.002512268,0.000000000,0,0.113650313,1,1,0.004670408,0.005244722,-0.004033422,0.003239737,-0.016266949,-0.002535099,0.999859222,0.006399519,-0.032551493,-0.004966734,0.007580820,0.015702272,-0.007041200
1778503991.373328686,17.400182724,0,0.000000000,0.000000000,37,9,1,1,0,0.000717630,0.000717630,0.000000000,0,0.113650313,1,1,0.002947065,0.005549981,-0.003544652,0.004137468,-0.018320634,-0.000409297,0.999823519,0.008264121,-0.036646390,-0.000667296,-0.004803549,0.011433207,-0.004311689
1778503991.473310471,17.500164509,1,0.239148743,0.265693516,27,4,1,1,0,0.001199770,0.001199770,0.000000000,0,0.113650313,1,1,0.003395760,0.006742009,-0.003045361,0.003252360,-0.017209731,-0.001722995,0.999845127,0.006448276,-0.034432143,-0.003335495,-0.000978846,0.015562825,-0.001767939
1778503991.573373795,17.600227833,1,0.239341854,0.244016366,13,9,1,1,0,0.001496315,0.001496315,0.000000000,0,0.113650313,1,1,0.003708620,0.005094857,-0.002085861,0.004976636,-0.017148666,-0.001739284,0.999839053,0.009898007,-0.034315858,-0.003309277,0.000376900,0.002094224,0.001080877
1778503991.672481537,17.699335575,0,0.000000000,0.000000000,12,11,1,1,0,0.000988643,0.000988643,0.000000000,0,0.113650313,1,1,0.003208211,0.003486703,-0.001739224,0.006534392,-0.018254035,-0.001873330,0.999810273,0.013006958,-0.036533753,-0.003509740,-0.004057546,-0.008501117,0.001589403
1778503991.773468733,17.800322771,1,0.242083386,0.254449778,21,4,1,1,0,0.000279786,0.000279786,0.000000000,0,0.113650313,1,1,0.002365842,0.002386894,-0.003569324,0.006652788,-0.016992150,-0.000747893,0.999833210,0.013286008,-0.033995130,-0.001270180,-0.003722647,-0.011864130,-0.003621671
1778503991.873334646,17.900188684,0,0.000000000,0.000000000,13,0,1,1,0,0.002434970,0.002434970,0.000000000,0,0.113650313,1,1,0.004419429,0.001775553,-0.003979956,0.006162727,-0.016117603,-0.000001081,0.999851111,0.012330303,-0.032236003,0.000196597,0.007095903,-0.011851064,-0.003821472
1778503991.973296404,18.000150442,0,0.000000000,0.000000000,23,1,1,1,0,0.001182807,0.001182807,0.000000000,0,0.113650313,1,1,0.003402923,0.002433924,-0.003711077,0.004454469,-0.017632361,-0.002360813,0.999831828,0.008829797,-0.035287147,-0.004566605,-0.000519178,-0.002223789,-0.002373631
1778503992.073913097,18.100767136,0,0.000000000,0.000000000,17,0,1,1,0,0.000589357,0.000589357,0.000000000,0,0.113650313,1,1,0.002874017,0.002591892,-0.002810771,0.003735078,-0.018414836,-0.002447957,0.999820459,0.007383737,-0.036849684,-0.004760723,-0.004692979,0.001794337,0.000300343
1778503992.173395634,18.200249672,0,0.000000000,0.000000000,23,2,1,1,0,0.001097147,0.001097147,0.000000000,0,0.113650313,1,1,0.003338886,0.003310578,-0.001815452,0.003244274,-0.017256992,-0.004040959,0.999837658,0.006351857,-0.034541469,-0.007973474,-0.000814576,0.006741140,0.002765986
1778503992.273270369,18.300124407,1,0.251706258,0.275039090,17,5,1,1,0,0.000274770,0.000274770,0.000000000,0,0.113650313,1,1,0.002641406,0.006680224,-0.001530129,0.001868884,-0.018008468,-0.004689322,0.999825091,0.003570545,-0.036035963,-0.009315874,-0.004737737,0.023015420,0.002905864
1778503992.373477936,18.400331974,0,0.000000000,0.000000000,27,0,1,1,0,-0.000236300,-0.000236300,0.000000000,0,0.113650313,1,1,0.002251722,0.006778124,-0.001601233,0.003965704,-0.019873065,-0.003941648,0.999786876,0.007779286,-0.039779412,-0.007730186,-0.009900258,0.014468644,0.001663303
1778503992.473384142,18.500238180,0,0.000000000,0.000000000,22,14,1,1,0,-0.002306736,-0.002306736,0.000000000,0,0.113650313,1,1,0.000300927,0.005743073,-0.001056561,0.005469326,-0.021198947,-0.004321694,0.999750976,0.010762600,-0.042447356,-0.008417029,-0.020914401,0.002523435,0.002135183
1778503992.573265553,18.600119591,1,0.246955541,0.275344166,30,10,1,1,0,-0.002381912,-0.002381912,0.000000000,0,0.113650313,1,1,0.000150717,0.004374902,0.000502289,0.006361903,-0.021568801,-0.003153153,0.999742152,0.012596580,-0.043180016,-0.006035905,-0.021336849,-0.007059442,0.005340042
1778503992.672541857,18.699395895,0,0.000000000,0.000000000,22,18,1,1,0,-0.002392260,-0.002392260,0.000000000,0,0.113650313,1,1,0.000146957,0.002962043,0.002020579,0.006449974,-0.021629128,-0.004287129,0.999736065,0.012723366,-0.043315686,-0.008300861,-0.020525596,-0.012106147,0.007808947
1778503992.773395300,18.800249338,0,0.000000000,0.000000000,28,18,1,1,0,-0.001380680,-0.001380680,0.000000000,0,0.113650313,1,1,0.001131304,0.001458757,0.001194933,0.006971787,-0.021402985,-0.004066176,0.999738352,0.013778961,-0.042864592,-0.007839072,-0.015430607,-0.017378910,0.004227166
1778503992.873350382,18.900204420,0,0.000000000,0.000000000,31,1,1,1,0,-0.000885234,-0.000885234,0.000000000,0,0.113650313,1,1,0.001651064,0.002084548,-0.000004302,0.003761614,-0.021512893,-0.003580466,0.999755083,0.007374233,-0.043055487,-0.007003881,-0.013541717,-0.003701818,0.000352284
1778503992.972460747,18.999314785,0,0.000000000,0.000000000,26,22,1,1,0,-0.001509221,-0.001509221,0.000000000,0,0.113650313,1,1,0.001086326,0.003446029,0.000609264,0.001357861,-0.021756948,-0.004363305,0.999752846,0.002527583,-0.043528735,-0.008673692,-0.017688280,0.010441162,0.002250250
1778503993.072447777,19.099301815,0,0.000000000,0.000000000,16,3,1,1,0,-0.002057460,-0.002057460,0.000000000,0,0.113650313,1,1,0.000465702,0.005321194,0.000141523,0.001233308,-0.020793006,-0.003920941,0.999775353,0.002305001,-0.041598337,-0.007795654,-0.017686826,0.018963360,0.000970143
1778503993.172551632,19.199405670,0,0.000000000,0.000000000,20,2,1,1,0,-0.001062197,-0.001062197,0.000000000,0,0.113650313,1,1,0.001437862,0.002949755,-0.001470267,0.004312342,-0.021214108,-0.002488690,0.999762558,0.008524829,-0.042452356,-0.004797573,-0.013422112,0.001063542,-0.003823501
1778503993.272409439,19.299263477,0,0.000000000,0.000000000,13,8,1,1,0,-0.000744166,-0.000744166,0.000000000,0,0.113650313,1,1,0.001715953,0.002507967,-0.001820442,0.003993631,-0.020177902,-0.003453680,0.999782464,0.007852631,-0.040385588,-0.006750247,-0.011054275,0.000857678,-0.003426894
1778503993.373447418,19.400301456,0,0.000000000,0.000000000,21,14,1,1,0,-0.000031731,-0.000031731,0.000000000,0,0.113650313,1,1,0.002446239,0.002888829,-0.000521906,0.003641890,-0.020312647,-0.001336871,0.999786150,0.007233947,-0.040637528,-0.002527307,-0.009542844,0.003751378,0.000794398
1778503993.473383904,19.500237942,0,0.000000000,0.000000000,16,22,1,1,0,-0.000698845,-0.000698845,0.000000000,0,0.113650313,1,1,0.001832851,0.002152361,-0.000848615,0.003726481,-0.021761501,-0.002583830,0.999752907,0.007345694,-0.043545265,-0.005008965,-0.016023392,0.001631919,-0.000424927
1778503993.572496176,19.599350214,0,0.000000000,0.000000000,17,11,1,1,0,-0.000857205,-0.000857205,0.000000000,0,0.113650313,1,1,0.001714688,0.004792890,-0.002051396,0.002187447,-0.020401633,-0.004686192,0.999778489,0.004186213,-0.040826069,-0.009288926,-0.013760671,0.016321633,-0.002887242
1778503993.673371792,19.700225830,0,0.000000000,0.000000000,28,5,1,1,0,-0.001295547,-0.001295547,0.000000000,0,0.113650313,1,1,0.001112039,0.005481057,-0.001411121,0.002827831,-0.019401001,-0.003255027,0.999802485,0.005532440,-0.038822499,-0.006403912,-0.013025046,0.015258960,-0.000520038
1778503993.773362398,19.800216436,1,0.236061459,0.276599646,23,24,1,1,0,-0.001201163,-0.001201163,0.000000000,0,0.113650313,1,1,0.001176022,0.004179716,-0.002972495,0.004353666,-0.018249599,-0.004307514,0.999814704,0.008554311,-0.036538071,-0.008460275,-0.007476265,0.003406570,-0.004249014
1778503993.873542547,19.900396585,0,0.000000000,0.000000000,21,17,1,1,0,-0.002504141,-0.002504141,0.000000000,0,0.113650313,1,1,-0.000136386,0.003897598,-0.002542639,0.004365177,-0.018934203,-0.003595484,0.999804738,0.008598775,-0.037901475,-0.007029368,-0.011996003,0.000972363,-0.002274872
1778503993.973354578,20.000208616,0,0.000000000,0.000000000,30,10,1,1,0,-0.001662573,-0.001662573,0.000000000,0,0.113650313,1,1,0.000952592,0.002945898,-0.003494136,0.004715318,-0.018997544,-0.002517300,0.999805242,0.009340040,-0.038020588,-0.004857990,-0.005875682,-0.003847648,-0.003900078
1778503994.072628975,20.099483013,0,0.000000000,0.000000000,33,9,1,1,0,-0.000361259,-0.000361259,0.000000000,0,0.113650313,1,1,0.001881474,0.002774561,-0.002367580,0.004143419,-0.018472407,-0.001656336,0.999819413,0.008229862,-0.036960283,-0.003161160,-0.000988366,-0.001919720,0.000370439
1778503994.172510862,20.199364901,1,0.230139639,0.238497545,13,5,1,1,0,0.000545029,0.000545029,0.000000000,0,0.113650313,1,1,0.002744954,0.002801157,-0.003663565,0.003527740,-0.017806807,-0.001309958,0.999834365,0.007012165,-0.035624493,-0.002495433,0.003485572,0.000690663,-0.003032565
1778503994.272424936,20.299278975,0,0.000000000,0.000000000,35,9,1,1,0,0.000115524,0.000115524,0.000000000,0,0.113650313,1,1,0.002387606,0.002771432,-0.002446661,0.003273480,-0.018321039,-0.002519118,0.999823623,0.006457884,-0.036660319,-0.004920727,-0.000574857,0.002501376,0.000854709
1778503994.373354197,20.400208235,0,0.000000000,0.000000000,31,19,1,1,0,-0.000241735,-0.000241735,0.000000000,0,0.113650313,1,1,0.002174398,0.003429634,-0.002812896,0.002795997,-0.019548086,-0.003509056,0.999798850,0.005457880,-0.039117906,-0.006912731,-0.004466318,0.007019689,-0.000319206
1778503994.472471714,20.499325752,0,0.000000000,0.000000000,30,17,1,1,0,-0.001834524,-0.001834524,0.000000000,0,0.113650313,1,1,0.000676083,0.002381413,-0.003078796,0.003579384,-0.020092824,-0.004073973,0.999783411,0.006999220,-0.040216950,-0.008008902,-0.012181861,0.000596501,-0.001439438
1778503994.573091745,20.599945784,0,0.000000000,0.000000000,17,1,1,1,0,-0.000873615,-0.000873615,0.000000000,0,0.113650313,1,1,0.001510971,0.002083448,-0.004920538,0.002964117,-0.017325107,-0.002203698,0.999843087,0.005854496,-0.034664783,-0.004306599,-0.001056669,0.001815352,-0.005455419
1778503994.673411131,20.700265169,0,0.000000000,0.000000000,21,13,1,1,0,0.000820072,0.000820072,0.000000000,0,0.113650313,1,1,0.003009306,0.002656614,-0.005199422,0.002938654,-0.016761972,-0.004207811,0.999846336,0.005738604,-0.033549816,-0.008320591,0.006643893,0.005758061,-0.004383766
1778503994.772241116,20.799095154,0,0.000000000,0.000000000,18,14,1,1,0,-0.000790853,-0.000790853,0.000000000,0,0.113650313,1,1,0.001631722,0.003286810,-0.003661232,0.002133757,-0.018565318,-0.004571426,0.999814922,0.004099825,-0.037151819,-0.009068314,-0.003077922,0.009807542,-0.000008088
1778503994.873458147,20.900312185,0,0.000000000,0.000000000,22,24,1,1,0,-0.000957058,-0.000957058,0.000000000,0,0.113650313,1,1,0.001649949,0.004707853,-0.003866022,0.002025295,-0.019668374,-0.004527579,0.999794256,0.003874666,-0.039357154,-0.008980702,-0.005428513,0.014361693,-0.000583372
