stamp_abs,stamp_rel,x,y,z,qx,qy,qz,qw,roll,pitch,yaw,vx,vy,vz
1778503974.351415873,0.000000000,0.000000000,0.000000000,0.000000000,0.000000000,-0.000000000,0.000000000,1.000000000,0.000000000,-0.000000000,0.000000000,0.043083618,0.026363039,0.000766421
1778503974.457512140,0.106096268,0.002517802,-0.005424827,-0.010341059,0.000036899,-0.000932760,0.000634295,0.999999363,0.000074982,-0.001865473,0.001268661,0.033996700,-0.043493732,-0.097467754
1778503974.553713799,0.202297926,0.002900485,-0.008903600,-0.008297938,0.002557389,0.002321694,0.006513291,0.999972823,0.005084472,0.004676593,0.013014863,0.039792222,-0.039025104,-0.026328734
1778503974.633067369,0.281651497,0.003873935,-0.008659660,-0.011699752,-0.005721552,0.004415132,0.001036450,0.999973348,3.130140007,3.132774371,-3.139469202,0.052059552,0.010540305,-0.031147546
1778503974.761337042,0.409921169,0.005588771,-0.003114465,-0.011738900,-0.007449355,0.000249246,-0.000247640,0.999972191,3.126693928,3.141090486,3.141101101,0.050429857,0.058372449,-0.018760474
1778503974.833212614,0.481796741,0.007280423,0.000383039,-0.006405558,-0.006412824,-0.001661043,-0.002428137,0.999975110,3.128758836,-3.138301787,3.136715151,0.051390168,0.070119016,0.001299999
1778503974.959458113,0.608042240,0.009912369,0.004384010,-0.009302721,-0.000083849,-0.006415597,-0.002575395,0.999976100,3.141391897,-3.128761845,3.136440463,0.042567110,0.056349366,-0.007531792
1778503975.068498611,0.717082739,0.011019258,0.006389168,-0.008457167,0.003282850,-0.005311773,-0.004646187,0.999969710,0.006516559,-0.010653931,-0.009257875,0.039717111,0.043305856,-0.003074059
1778503975.170468807,0.819052935,0.008687960,0.005897396,-0.010407537,0.007992654,-0.008874066,-0.002619758,0.999925250,0.015940815,-0.017789621,-0.005098098,0.016269659,0.018018912,-0.008810967
1778503975.269681215,0.918265343,0.010079069,0.007077395,-0.011158903,0.009590927,-0.010118269,-0.006078853,0.999884334,0.019061723,-0.020352206,-0.011964976,0.014369707,0.010666588,-0.008694078
1778503975.371138334,1.019722462,0.007718181,0.004645131,-0.010164899,0.012307609,-0.013351398,-0.006010384,0.999817052,0.024461476,-0.026849084,-0.011694403,-0.007683426,-0.013537371,-0.004621848
1778503975.467317343,1.115901470,0.008371905,0.002774426,-0.008419046,0.012157096,-0.012240973,-0.004025316,0.999843068,0.024221512,-0.024578451,-0.007754159,-0.005644147,-0.023955649,0.002727060
1778503975.571596861,1.220180988,0.006400379,0.001065683,-0.004203883,0.011962724,-0.013108887,-0.002753037,0.999838723,0.023859914,-0.026282438,-0.005193366,-0.016455516,-0.028665145,0.014283356
1778503975.663225889,1.311810017,0.007150879,0.000178978,-0.006832232,0.009447593,-0.010617241,-0.001029726,0.999898473,0.018876786,-0.021253383,-0.001859049,-0.006151558,-0.023561853,0.004734404
1778503975.771397591,1.419981718,0.004198188,0.000847476,-0.006978061,0.006882937,-0.010561904,-0.001944909,0.999918641,0.013727171,-0.021150439,-0.003744953,-0.014660528,-0.009059019,0.003552979
1778503975.865488052,1.514072180,0.002273178,0.001005379,-0.006020158,0.006730219,-0.011553094,-0.002451506,0.999907606,0.013406540,-0.023139116,-0.004748338,-0.020100603,-0.004807591,0.005922893
1778503975.969702244,1.618286371,0.003425405,0.002740771,-0.007075607,0.005142060,-0.009491038,-0.003293485,0.999936314,0.010222975,-0.019015883,-0.006490162,-0.005340775,0.008475408,0.002550994
1778503976.053583622,1.702167749,0.003286568,0.003682146,-0.007311128,0.005166737,-0.008677929,-0.004149032,0.999940390,0.010262581,-0.017398576,-0.008209232,-0.001256528,0.011740852,0.001792526
1778503976.168226719,1.816810846,0.003046826,0.001407045,-0.005474150,0.006861886,-0.011077095,-0.005760826,0.999898508,0.013598533,-0.022232833,-0.011371517,-0.005227045,-0.003301486,0.006680456
1778503976.271380663,1.919964790,0.003333211,0.002640677,-0.007560264,0.005033387,-0.012239177,-0.005307479,0.999898344,0.009938986,-0.024531755,-0.010494020,-0.005738869,0.007261750,-0.000393668
1778503976.371378183,2.019962311,0.003995981,0.002485664,-0.009220193,0.004640654,-0.010504574,-0.003804760,0.999926818,0.009202861,-0.021044477,-0.007513201,-0.000225117,0.007743281,-0.004176823
1778503976.471373558,2.119957685,0.003963707,0.004236060,-0.009903703,0.003633191,-0.011625519,-0.003040758,0.999921197,0.007197119,-0.023273402,-0.005998222,-0.002989735,0.017076891,-0.004556739
1778503976.572472572,2.221056700,0.003653635,0.004508816,-0.009453369,0.005151782,-0.012609705,-0.001619863,0.999905911,0.010265192,-0.025236407,-0.003110493,-0.007517698,0.012150107,-0.002469933
1778503976.653694391,2.302278519,0.004808692,0.005293814,-0.010071484,0.005338302,-0.011838671,-0.003792944,0.999908477,0.010588995,-0.023717893,-0.007460965,-0.001726877,0.012918452,-0.003363161
1778503976.771747828,2.420331955,0.005608115,0.006065676,-0.008963136,0.005891832,-0.010183109,-0.003403933,0.999924999,0.011716162,-0.020406218,-0.006688804,0.003150263,0.010149231,0.001720450
1778503976.870476961,2.519061089,0.005960197,0.005170199,-0.007816190,0.007976917,-0.011327133,-0.002946458,0.999899687,0.015890246,-0.022700950,-0.005713117,0.001423181,-0.001560466,0.004260306
1778503976.953593254,2.602177382,0.006769072,0.004318843,-0.008347146,0.007711848,-0.013682823,-0.002224421,0.999874172,0.015367255,-0.027399940,-0.004238845,-0.001613665,-0.005758232,0.001321852
1778503977.053297520,2.701881647,0.005523786,0.003778285,-0.007440852,0.006718134,-0.014077402,-0.005349931,0.999864027,0.013289499,-0.028226607,-0.010513641,-0.011364060,-0.004936081,0.003665013
1778503977.157840014,2.806424141,0.003284744,0.002384053,-0.004479232,0.008158415,-0.013157601,-0.005804331,0.999863304,0.016168199,-0.026409382,-0.011396605,-0.018921332,-0.011992808,0.010778750
1778503977.257607222,2.906191349,0.002324682,0.002287693,-0.003130927,0.005783408,-0.013919012,-0.003527975,0.999880176,0.011471927,-0.027879108,-0.006896842,-0.021140293,-0.005223360,0.012127406
1778503977.361727238,3.010311365,0.002558879,0.003169494,-0.004994765,0.005233132,-0.014256281,-0.002271935,0.999882099,0.010404675,-0.028536852,-0.004395929,-0.017943596,0.001741093,0.005079220
1778503977.472106695,3.120690823,0.002443083,0.003721150,-0.004967050,0.005135530,-0.014511326,-0.004927200,0.999869377,0.010131172,-0.029073565,-0.009708322,-0.017617416,0.005746920,0.004507753
1778503977.571785450,3.220369577,0.002363222,0.005500790,-0.004762407,0.004848992,-0.014980509,-0.003138432,0.999871103,0.009607172,-0.029992089,-0.006133571,-0.017951524,0.012949837,0.004297196
1778503977.669964075,3.318548203,0.002506544,0.007419040,-0.004278251,0.004608734,-0.015617990,-0.002513118,0.999864252,0.009142311,-0.031259996,-0.004884001,-0.018153191,0.018246129,0.004562547
1778503977.766120911,3.414705038,0.002307637,0.007625748,-0.003829229,0.005316068,-0.015398048,-0.000760656,0.999867022,0.010612531,-0.030804959,-0.001358040,-0.017902130,0.012553809,0.004843399
1778503977.872205496,3.520789623,0.000249467,0.007729251,-0.003396801,0.006756979,-0.015934911,-0.002577633,0.999846877,0.013436982,-0.031905188,-0.004941668,-0.026247933,0.005985363,0.004637387
1778503977.963474989,3.612059116,0.000968707,0.005867254,-0.004493539,0.009096622,-0.013206380,-0.002472812,0.999868355,0.018132874,-0.026457359,-0.004706370,-0.014223925,-0.009869353,0.001071230
1778503978.063454866,3.712038994,0.001392674,0.003130750,-0.004432306,0.008790152,-0.014668790,-0.004345592,0.999844326,0.017458516,-0.029413651,-0.008435698,-0.012802372,-0.020909489,0.000894414
1778503978.172174931,3.820759058,0.000217782,0.001648995,-0.005009050,0.008695867,-0.012102037,-0.004190415,0.999880174,0.017294183,-0.024276437,-0.008171848,-0.011005437,-0.022167421,-0.000338912
1778503978.271542072,3.920126200,0.002804534,0.001706880,-0.005468403,0.007026568,-0.011417995,-0.003171602,0.999905094,0.013983491,-0.022880390,-0.006183802,0.003212487,-0.013382820,-0.000817270
1778503978.367736578,4.016320705,0.002939433,0.003368083,-0.004190623,0.005402198,-0.011115598,-0.003516959,0.999917442,0.010728184,-0.022269199,-0.006915009,0.003751310,0.000992723,0.003083303
1778503978.471889973,4.120474100,0.002784075,0.004895953,-0.002999454,0.004822273,-0.012187818,-0.002974831,0.999909672,0.009574158,-0.024404548,-0.005833348,0.000231352,0.009513142,0.005402898
1778503978.571452856,4.220036983,0.003593134,0.007939841,-0.003318860,0.003635121,-0.014602117,-0.002565743,0.999883484,0.007197600,-0.029223643,-0.005026894,-0.001896442,0.023031367,0.003169205
1778503978.669618130,4.318202257,0.003786829,0.009215727,-0.002353771,0.006491384,-0.015395197,-0.002619940,0.999856983,0.012906732,-0.030824886,-0.005041675,-0.006073099,0.016692278,0.004877243
1778503978.769356251,4.417940378,0.003961564,0.007861215,-0.002432339,0.008845690,-0.014468936,-0.003558237,0.999849860,0.017594061,-0.029000543,-0.006862370,-0.005969466,-0.000589303,0.003520838
1778503978.847419024,4.496003151,0.004405902,0.008008362,-0.003804775,0.008728307,-0.016129270,-0.003100359,0.999827011,0.017363518,-0.032312703,-0.005921208,-0.008959967,-0.002413998,-0.000665804
1778503978.939571857,4.588155985,0.005375473,0.007875576,-0.004184253,0.009477507,-0.015451601,-0.003494157,0.999829593,0.018853960,-0.030969119,-0.006697499,-0.006277650,-0.007252668,-0.001280258
1778503979.073494673,4.722078800,0.007173967,0.005596442,-0.004965790,0.011440491,-0.011922138,-0.002775232,0.999859628,0.022820099,-0.023906707,-0.005278428,0.005290325,-0.022599805,-0.002492316
1778503979.158335447,4.806919575,0.005799577,0.006322131,-0.005238263,0.009881407,-0.013253543,-0.005169165,0.999849979,0.019631039,-0.026608406,-0.010078590,-0.003763524,-0.015275360,-0.003119702
1778503979.257683277,4.906267405,0.004513097,0.005334725,-0.006472654,0.008593749,-0.014525493,-0.005934380,0.999839958,0.017020400,-0.029152463,-0.011622404,-0.011365344,-0.015016766,-0.006040323
1778503979.349562883,4.998147011,0.002356955,0.005411566,-0.006507077,0.006274058,-0.015592563,-0.005111243,0.999845680,0.012393154,-0.031249536,-0.010030317,-0.020803971,-0.006018328,-0.004574752
1778503979.470158339,5.118742466,0.001063415,0.006150345,-0.003897040,0.004995867,-0.014751991,-0.003748700,0.999871675,0.009884324,-0.029541948,-0.007352314,-0.020744514,0.003544754,0.004308449
1778503979.538018942,5.186603069,-0.000154223,0.007152559,-0.002709405,0.003862316,-0.018844940,-0.002957352,0.999810584,0.007617197,-0.037714525,-0.005772150,-0.032054925,0.010920850,0.006072596
1778503979.663040876,5.311625004,-0.000406581,0.006980747,-0.003616271,0.005418040,-0.016614244,-0.000770045,0.999846998,0.010815020,-0.033237869,-0.001360573,-0.025424156,0.006548860,0.002520963
1778503979.747610092,5.396194220,0.001403797,0.005412122,-0.005937932,0.007951239,-0.014072175,-0.000826939,0.999869025,0.015884086,-0.028157534,-0.001430446,-0.010549808,-0.006242811,-0.003124515
1778503979.862904787,5.511488914,0.002211122,0.007268148,-0.008203916,0.007207674,-0.012182808,-0.001091521,0.999899214,0.014392073,-0.024381311,-0.002007802,-0.000927040,0.003169878,-0.007803274
1778503979.964060307,5.612644434,0.003327238,0.007700581,-0.010120458,0.006909679,-0.011781278,-0.002615448,0.999903304,0.013760660,-0.023598612,-0.005069013,0.005605314,0.003762300,-0.010561348
1778503980.060080767,5.708664894,0.004395877,0.007133886,-0.008773856,0.009218158,-0.009301152,-0.003122203,0.999909379,0.018380799,-0.018659262,-0.006073456,0.014399807,-0.005793205,-0.004622356
1778503980.157732964,5.806317091,0.006589582,0.005925035,-0.009387372,0.009381300,-0.008876610,-0.003606388,0.999910091,0.018700948,-0.017820232,-0.007046756,0.023592156,-0.012803698,-0.004946127
1778503980.269639969,5.918224096,0.007217646,0.005323149,-0.008478624,0.009037851,-0.011407732,-0.001473299,0.999892999,0.018045840,-0.022841641,-0.002740798,0.016950872,-0.013376246,-0.001917564
1778503980.358326674,6.006910801,0.005859087,0.004428641,-0.007725923,0.008876700,-0.014402808,-0.001622203,0.999855555,0.017712395,-0.028834250,-0.002989485,0.001203104,-0.014760524,-0.000203519
1778503980.467595816,6.116179943,0.003368705,0.003690974,-0.005871656,0.008065953,-0.015698399,0.000236816,0.999844210,0.016145484,-0.031393243,0.000727162,-0.014531832,-0.012805027,0.004071453
1778503980.571594000,6.220178127,0.001620231,0.003783188,-0.006247441,0.007258385,-0.016758065,-0.000362345,0.999833162,0.014510866,-0.033522076,-0.000481566,-0.022422060,-0.007353149,0.001858300
1778503980.671308994,6.319893122,0.000913127,0.004228172,-0.007661609,0.006356453,-0.016736133,-0.000847827,0.999839376,0.012689938,-0.033483925,-0.001483449,-0.022872162,-0.001159281,-0.002140940
1778503980.772520781,6.421104908,-0.002127044,0.006417771,-0.009491107,0.004462716,-0.016541945,-0.000810051,0.999852885,0.008902311,-0.033092293,-0.001473026,-0.030908211,0.013456421,-0.006507647
1778503980.872309685,6.520893812,-0.001498662,0.008224784,-0.007994214,0.004539999,-0.014301339,0.000094896,0.999887419,0.009085531,-0.028602495,0.000319757,-0.018484325,0.018771190,-0.000464765
1778503980.964556217,6.613140345,-0.001115316,0.009409760,-0.005805001,0.005297800,-0.014184427,0.000867258,0.999884985,0.010623457,-0.028360204,0.001885368,-0.013169494,0.018370705,0.005799212
1778503981.067510843,6.716094971,0.002525416,0.010764853,-0.005815440,0.005636386,-0.010477919,0.000061761,0.999929218,0.011275983,-0.020955193,0.000241682,0.012423056,0.017861542,0.005663622
1778503981.166056156,6.814640284,0.002857445,0.008741263,-0.003227534,0.008556791,-0.011993880,0.000507365,0.999891329,0.017129654,-0.023978769,0.001220228,0.009238131,-0.001845686,0.010498865
1778503981.273382425,6.921966553,0.004497490,0.007800633,-0.002113451,0.008524082,-0.013585951,0.001064375,0.999870806,0.017082010,-0.027153583,0.002360962,0.009612366,-0.007038508,0.010402039
1778503981.371765375,7.020349503,0.005406239,0.003089151,-0.000054472,0.011228642,-0.015141408,0.003334799,0.999816750,0.022566366,-0.030206970,0.007011667,0.005174242,-0.031329073,0.012752221
1778503981.472182274,7.120766401,0.006853698,0.002996706,0.000279038,0.008401012,-0.016689365,0.002122811,0.999823175,0.016880093,-0.033343338,0.004527818,0.001992879,-0.020059484,0.010458063
1778503981.561567545,7.210151672,0.006346863,0.003216708,-0.001370004,0.006729149,-0.017473136,0.000157475,0.999824676,0.013470073,-0.034945138,0.000550390,-0.006456535,-0.010360721,0.004072707
1778503981.668540955,7.317125082,0.006195372,0.003108500,-0.003046745,0.006474487,-0.017441640,-0.002372460,0.999824105,0.012872138,-0.034914959,-0.004521005,-0.010303205,-0.005356560,-0.001523220
1778503981.772523403,7.421107531,0.003013087,0.002692134,-0.004574907,0.006173555,-0.019231742,-0.002732044,0.999792260,0.012248843,-0.038498736,-0.005229394,-0.028318182,-0.003293550,-0.005769842
1778503981.872531414,7.521115541,0.001139668,0.003624074,-0.005727603,0.005395848,-0.017584590,-0.001388221,0.999829855,0.010747896,-0.035185438,-0.002587806,-0.030319551,0.004347788,-0.006950548
1778503981.972912312,7.621496439,-0.000926276,0.002857353,-0.005133427,0.006452416,-0.017655410,0.001758299,0.999821765,0.012973060,-0.035289159,0.003746152,-0.033727687,-0.001247752,-0.003789459
1778503982.071657419,7.720241547,0.001569415,0.003485295,-0.007171750,0.006156102,-0.015085234,0.001439448,0.999866224,0.012359918,-0.030153278,0.003065641,-0.013256864,0.002864919,-0.006979470
1778503982.170275450,7.818859577,0.001772960,0.004411836,-0.006344485,0.004639178,-0.014595331,-0.001321757,0.999881847,0.009242749,-0.029203628,-0.002508854,-0.009405648,0.010264994,-0.002822712
1778503982.272586107,7.921170235,0.003466905,0.005527744,-0.006704654,0.005629767,-0.015001317,-0.000879059,0.999871238,0.011237007,-0.030013175,-0.001589699,-0.001935115,0.011489798,-0.002976944
1778503982.372431040,8.021015167,0.003165660,0.006949636,-0.005138182,0.005228310,-0.017125432,-0.001405355,0.999838692,0.010413099,-0.034266740,-0.002632730,-0.009558245,0.015340218,0.001485509
1778503982.472590923,8.121175051,0.002939897,0.006807008,-0.004415581,0.006987422,-0.018741132,-0.001194763,0.999799239,0.013937506,-0.037500224,-0.002128640,-0.016238238,0.007237932,0.002589363
1778503982.572228909,8.220813036,0.001827138,0.006072732,-0.002472006,0.007218716,-0.018640800,-0.000932770,0.999799750,0.014410285,-0.037296248,-0.001597152,-0.022679504,0.000704997,0.006976175
1778503982.671578407,8.320162535,0.000238075,0.005052360,-0.002075678,0.008957694,-0.020120828,0.001583257,0.999756173,0.017990246,-0.040214317,0.003529074,-0.031090629,-0.008913601,0.006010647
1778503982.772676945,8.421261072,-0.001633341,0.004968154,-0.000977209,0.008320092,-0.019416441,-0.001397848,0.999775887,0.016595461,-0.038857216,-0.002473846,-0.034665847,-0.007252847,0.007366752
1778503982.852143526,8.500727654,-0.000511609,0.005188726,-0.001494197,0.008988568,-0.017783329,-0.001664230,0.999800075,0.017926668,-0.035596982,-0.003010012,-0.022999381,-0.007740548,0.005054223
1778503982.971770048,8.620354176,-0.002244338,0.005554574,-0.001410044,0.008314212,-0.019736371,-0.003703073,0.999763790,0.016491959,-0.039535293,-0.007081806,-0.030123446,-0.004004155,0.003945001
1778503983.071777344,8.720361471,-0.001570065,0.004984060,-0.000658058,0.007793088,-0.017720938,-0.001195402,0.999811886,0.015551281,-0.035461272,-0.002115484,-0.020802483,-0.006054946,0.005780516
1778503983.172361374,8.820945501,-0.001884667,0.005420649,-0.002510401,0.007135851,-0.017945060,-0.000733595,0.999813241,0.014252373,-0.035901600,-0.001211591,-0.019440707,-0.001639110,-0.000528978
1778503983.260217667,8.908801794,-0.000194491,0.006531160,-0.002587050,0.006826413,-0.019137373,-0.002466009,0.999790518,0.013565949,-0.038309766,-0.004673151,-0.014490058,0.003793625,-0.000363927
1778503983.340271235,8.988855362,-0.000496565,0.006185726,-0.002064731,0.006978459,-0.018289221,-0.000485337,0.999808267,0.013946273,-0.036586363,-0.000715706,-0.015464517,0.000897118,0.001327746
1778503983.458191872,9.106775999,-0.000646988,0.004525318,-0.003009101,0.007952082,-0.018213873,-0.002084360,0.999800317,0.015836248,-0.036461701,-0.003880800,-0.015350074,-0.008493029,-0.001588956
1778503983.557877779,9.206461906,-0.001512619,0.005799786,-0.003383416,0.006570339,-0.017824869,-0.001745796,0.999818012,0.013084748,-0.035673758,-0.003258805,-0.017396118,0.001207073,-0.002003573
1778503983.661830902,9.310415030,-0.000406176,0.005518858,-0.005286498,0.006370955,-0.016913944,-0.004369325,0.999827104,0.012599468,-0.033884196,-0.008526620,-0.009049595,0.000600903,-0.006274839
1778503983.763498068,9.412082195,0.000112291,0.007054059,-0.004684946,0.005539198,-0.017779211,-0.003577852,0.999820192,0.010956342,-0.035599184,-0.006961919,-0.009249506,0.009109566,-0.002921005
1778503983.863887310,9.512471437,0.000228077,0.005502500,-0.005740421,0.007081311,-0.020195450,-0.003217099,0.999765797,0.014041303,-0.040438024,-0.006151739,-0.014560465,-0.002444747,-0.005619121
1778503983.965700865,9.614284992,0.000782707,0.005851959,-0.006401827,0.006776103,-0.019968266,-0.003641851,0.999771019,0.013414786,-0.039987399,-0.007017087,-0.014793226,0.000801741,-0.005599456
1778503984.026135445,9.674719572,0.000287404,0.005225190,-0.005595368,0.006963361,-0.021823989,-0.002754240,0.999733784,0.013816420,-0.043688612,-0.005208070,-0.022511809,-0.002132677,-0.003240048
1778503984.143344879,9.791929007,-0.000128941,0.006237582,-0.003369888,0.007016340,-0.019997488,-0.004297651,0.999766173,0.013869083,-0.040056642,-0.008319443,-0.022767201,0.002796759,0.004347028
1778503984.267890215,9.916474342,0.000698913,0.006594184,-0.003047811,0.006900071,-0.019091697,-0.001564507,0.999792703,0.013748008,-0.038206364,-0.002866993,-0.016554113,0.002557605,0.004205226
1778503984.365286350,10.013870478,0.001544352,0.005210523,-0.003109525,0.008166046,-0.018552773,-0.001057866,0.999793974,0.016301429,-0.037123706,-0.001813541,-0.012162977,-0.006586290,0.003345413
1778503984.470198154,10.118782282,0.002475013,0.002624649,-0.003594428,0.009149905,-0.018592592,0.000972986,0.999784801,0.018345751,-0.037167933,0.002287376,-0.008929359,-0.018725498,0.001396820
1778503984.571695089,10.220279217,0.002666171,0.001550338,-0.003841630,0.007481737,-0.017971616,0.000781389,0.999810199,0.014998964,-0.035932450,0.001832583,-0.007869780,-0.015142230,0.000579274
1778503984.629877806,10.278461933,0.004058430,0.001398051,-0.003656343,0.006282835,-0.016587227,0.000370211,0.999842614,0.012583228,-0.033170663,0.000949257,0.000144154,-0.009803775,0.001414214
1778503984.771317959,10.419902086,0.004532473,0.001818108,-0.002557253,0.004052724,-0.015960172,-0.000748530,0.999864135,0.008084662,-0.031927498,-0.001368190,0.001023114,0.003400109,0.004387773
1778503984.872020483,10.520604610,0.005113688,0.003448308,-0.002032563,0.003275839,-0.016807378,-0.003353304,0.999847757,0.006441649,-0.033637951,-0.006599251,0.000275309,0.014419599,0.004658994
1778503984.971659660,10.620243788,0.005934724,0.003589348,-0.001895408,0.003757939,-0.017156411,-0.002393018,0.999842892,0.007437038,-0.034332162,-0.004659101,0.000732051,0.013708088,0.004066342
1778503985.069630623,10.718214750,0.005998071,0.005935982,-0.001921090,0.003155102,-0.017275575,-0.004182506,0.999837040,0.006168393,-0.034578802,-0.008259668,-0.001625908,0.023676733,0.003079765
1778503985.137929916,10.786514044,0.006039385,0.005216668,-0.002758520,0.004055958,-0.017701118,-0.004111855,0.999826641,0.007970030,-0.035436870,-0.008083857,-0.003510331,0.015828357,0.000450468
1778503985.237629890,10.886214018,0.007993930,0.004019688,-0.003068488,0.005669274,-0.016371474,-0.002254376,0.999847364,0.011269290,-0.032769375,-0.004324771,0.005951914,0.003787410,-0.000241100
1778503985.371744156,11.020328283,0.009913939,0.004408504,-0.004159248,0.005474358,-0.016025646,-0.003515691,0.999850414,0.010840190,-0.032090497,-0.006858455,0.010057821,0.005665129,-0.002540867
1778503985.472248793,11.120832920,0.007347526,0.006595649,-0.003556493,0.004176569,-0.018346324,-0.003564691,0.999816614,0.008226448,-0.036723949,-0.006979589,-0.007681574,0.016012820,-0.000880133
1778503985.570580721,11.219164848,0.008086357,0.005262537,-0.005315348,0.005264714,-0.017351590,-0.002783951,0.999831713,0.010437530,-0.034733636,-0.005387537,-0.003644331,0.005991321,-0.004929188
1778503985.672099113,11.320683241,0.005207079,0.005661276,-0.005068666,0.005338742,-0.018096295,-0.003692040,0.999815178,0.010549006,-0.036233250,-0.007194277,-0.017238653,0.006955533,-0.003467340
1778503985.772359848,11.420943975,0.001478399,0.006532133,-0.003598372,0.004843840,-0.019868742,-0.003107035,0.999786035,0.009569855,-0.039769565,-0.006025059,-0.032819412,0.010546803,0.000683325
1778503985.871931553,11.520515680,-0.000646030,0.004876665,-0.003386035,0.007643772,-0.020498586,-0.002251131,0.999758127,0.015204939,-0.041033183,-0.004191341,-0.036472796,-0.004900737,0.000683313
1778503985.971587896,11.620172024,-0.002405911,0.003089692,-0.003269187,0.008682289,-0.019997423,-0.001032451,0.999761799,0.017333892,-0.040013925,-0.001718539,-0.035459608,-0.015036118,0.000673367
1778503986.069931984,11.718516111,-0.002524610,0.001427894,-0.004057772,0.008504248,-0.019619076,-0.000485179,0.999771241,0.016999477,-0.039247503,-0.000636935,-0.027937318,-0.019343226,-0.001436104
1778503986.170100689,11.818684816,-0.003769281,0.002154622,-0.003603878,0.005790444,-0.017988113,-0.001273752,0.999820622,0.011540716,-0.035992295,-0.002340247,-0.024573769,-0.005760846,0.000740577
1778503986.272178650,11.920762777,-0.003173115,0.002347884,-0.003750320,0.005024375,-0.018819294,-0.002383001,0.999807437,0.009964353,-0.037664190,-0.004579237,-0.017652425,-0.000021868,0.000320236
1778503986.372480869,12.021064997,-0.001887728,0.002404414,-0.003474439,0.004710253,-0.016785896,-0.002075452,0.999845858,0.009354791,-0.033592486,-0.003994398,-0.005799842,0.002849265,0.001594971
1778503986.471788168,12.120372295,-0.000331737,0.002909574,-0.001285246,0.003235188,-0.016397264,-0.001128573,0.999859685,0.006435964,-0.032803112,-0.002151892,0.001615286,0.009240080,0.007126802
1778503986.564587831,12.213171959,0.000617122,0.004876489,-0.000566596,0.002498310,-0.016018690,-0.001972492,0.999866626,0.004935315,-0.032048449,-0.003866414,0.005600274,0.019752315,0.007568165
1778503986.649934053,12.298518181,0.003240139,0.006402195,-0.001457031,0.002729882,-0.015475944,-0.002976049,0.999872085,0.005369551,-0.030969127,-0.005869691,0.015402546,0.023526008,0.004086856
1778503986.769646168,12.418230295,0.004910307,0.007518176,0.001259241,0.004057481,-0.016255903,-0.001805648,0.999858001,0.008059455,-0.032527578,-0.003480716,0.014312213,0.020059874,0.009391189
1778503986.837682962,12.486267090,0.005970149,0.006453949,-0.000149548,0.006010468,-0.016130113,-0.001772272,0.999850265,0.011968484,-0.032282307,-0.003351867,0.016053697,0.008464577,0.004209995
1778503986.972532511,12.621116638,0.008210798,0.007066637,-0.000138617,0.006175511,-0.017388679,-0.002427140,0.999826788,0.012272215,-0.034808341,-0.004641500,0.014230507,0.006590585,0.002681891
1778503987.071503639,12.720087767,0.007165915,0.004975078,-0.000373538,0.007750308,-0.019156411,-0.001544667,0.999785266,0.015450075,-0.038337929,-0.002793790,0.000103091,-0.007845961,0.000762354
1778503987.167974949,12.816559076,0.003864331,0.003187805,0.000488025,0.007751371,-0.021007064,-0.001511374,0.999748136,0.015449603,-0.042039359,-0.002698707,-0.020387454,-0.014525062,0.001966783
1778503987.269633055,12.918217182,0.001482801,0.001225773,0.000878953,0.008010574,-0.020617654,-0.002698250,0.999751700,0.015920142,-0.041280022,-0.005069182,-0.028140174,-0.019856850,0.002219315
1778503987.372530222,13.021114349,-0.001077780,-0.000266263,0.000051093,0.006517708,-0.020362339,-0.002506191,0.999768280,0.012941441,-0.040759195,-0.004749751,-0.033054888,-0.017577233,-0.000354228
1778503987.467851877,13.116436005,-0.002275451,0.001370366,0.000086324,0.003585098,-0.019075189,-0.000666701,0.999811402,0.007148674,-0.038157222,-0.001197249,-0.028796145,0.001554579,0.000353081
1778503987.570561171,13.219145298,-0.000592324,0.003123528,-0.000543633,0.002899429,-0.017014380,-0.002696336,0.999847405,0.005709560,-0.034045780,-0.005296280,-0.010996768,0.013491617,-0.000637256
1778503987.672288895,13.320873022,0.000765048,0.002642959,-0.001747124,0.003469360,-0.017003762,-0.001158337,0.999848736,0.006902326,-0.034016976,-0.002199614,-0.002257314,0.010083416,-0.003551151
1778503987.759591579,13.408175707,0.003376173,0.001489541,-0.001493926,0.004756424,-0.015800036,-0.000282758,0.999863818,0.009507509,-0.031603719,-0.000415344,0.010069504,0.002210149,-0.001681739
1778503987.865760088,13.514344215,0.003747265,0.003030291,-0.002406893,0.003430333,-0.017129384,0.001035569,0.999846861,0.006899195,-0.034253116,0.002189627,0.006426355,0.012124351,-0.003790894
1778503987.947951794,13.596535921,0.005122443,0.003759892,-0.002530801,0.003692585,-0.016146668,-0.000523853,0.999862678,0.007371151,-0.032298385,-0.000928801,0.011124851,0.014086226,-0.003196556
1778503988.068421602,13.717005730,0.005383908,0.006072903,-0.000773121,0.004067029,-0.016475068,-0.002104522,0.999853791,0.008067997,-0.032968409,-0.004076646,0.007037858,0.019206415,0.001931567
1778503988.169803619,13.818387747,0.009659859,0.006129170,-0.000112507,0.004939604,-0.014034683,-0.002693341,0.999885680,0.009806506,-0.028096461,-0.005249511,0.025665213,0.013073190,0.003634817
1778503988.268705845,13.917289972,0.007161734,0.006439409,0.001476718,0.004933875,-0.018507670,-0.002145306,0.999814243,0.009793380,-0.037038101,-0.004110016,0.001319584,0.010636495,0.005579047
1778503988.367817402,14.016401529,0.007342940,0.005693172,0.001356991,0.007011662,-0.017554758,-0.004065081,0.999813054,0.013887012,-0.035167208,-0.007887426,0.000779104,0.000204677,0.003854576
1778503988.471840143,14.120424271,0.006988039,0.004812321,0.000993712,0.007709171,-0.018441787,-0.001623642,0.999798896,0.015366427,-0.036909569,-0.002964313,-0.004131280,-0.007535863,0.001909605
1778503988.571666956,14.220251083,0.005694506,0.005059894,0.000047999,0.006652527,-0.020374436,-0.003715536,0.999763383,0.013161836,-0.040799984,-0.007164255,-0.014714417,-0.004183608,-0.001283312
1778503988.666273832,14.314857960,0.004987160,0.003997679,-0.000361639,0.006184035,-0.020287647,-0.002640766,0.999771572,0.012268517,-0.040609848,-0.005033578,-0.017804738,-0.007255689,-0.002157369
1778503988.770420551,14.419004679,0.005820578,0.003472261,-0.000892479,0.006580803,-0.020807524,-0.001462855,0.999760771,0.013109318,-0.041636376,-0.002653452,-0.015252732,-0.008165847,-0.002955076
1778503988.866101742,14.514685869,0.004702243,0.003777977,-0.000830709,0.005502316,-0.020926526,-0.002743068,0.999762112,0.010896982,-0.041885529,-0.005259180,-0.020832609,-0.002628015,-0.001961993
1778503988.970437288,14.619021416,0.001488510,0.003914908,-0.000300250,0.005060006,-0.020578883,-0.002545431,0.999772187,0.010021609,-0.041185792,-0.004885607,-0.031085651,0.000216646,-0.000233910
1778503989.069732189,14.718316317,0.000777476,0.003575162,-0.000759342,0.005838991,-0.018283548,-0.003046157,0.999811152,0.011572398,-0.036603937,-0.005881623,-0.022893600,-0.001953803,-0.000924456
1778503989.169706821,14.818290949,0.001906523,0.001483508,-0.001141627,0.006706078,-0.016243307,-0.001687347,0.999844156,0.013362709,-0.032509908,-0.003157984,-0.007227494,-0.011876454,-0.001229713
1778503989.249615908,14.898200035,0.001891850,0.000499995,-0.000717881,0.006626430,-0.016223495,-0.003018640,0.999841876,0.013160142,-0.032487579,-0.005824425,-0.004344431,-0.013006671,0.000158939
1778503989.371588469,15.020172596,0.005358629,0.002103952,-0.003043414,0.003996950,-0.013376418,-0.005159618,0.999889231,0.007857882,-0.026794324,-0.010215007,0.018435209,0.003949601,-0.004900002
1778503989.472654104,15.121238232,0.007238588,0.003027639,-0.003334919,0.002686608,-0.016854681,-0.003407398,0.999848534,0.005260557,-0.033728960,-0.006727077,0.016160928,0.011520796,-0.004629782
1778503989.566159725,15.214743853,0.007090507,0.004982248,-0.003105562,0.001781856,-0.017449701,-0.004489369,0.999836076,0.003408536,-0.034916774,-0.008920635,0.008847927,0.021563622,-0.003032533
1778503989.651623726,15.300207853,0.007629718,0.004827201,-0.003664447,0.003497097,-0.018997300,-0.004251180,0.999804381,0.006836299,-0.038026064,-0.008373977,0.003959494,0.015174826,-0.004363373
1778503989.770107031,15.418691158,0.009841449,0.006193822,-0.005496683,0.003304288,-0.017464456,-0.004285426,0.999832841,0.006461778,-0.034958515,-0.008459274,0.010402127,0.017600964,-0.007279320
1778503989.868436337,15.517020464,0.007544843,0.007248926,-0.006214253,0.002650484,-0.020265466,-0.006218394,0.999771783,0.005051898,-0.040565770,-0.012336986,-0.008808344,0.020236842,-0.008128413
1778503989.968301296,15.616885424,0.009004721,0.007391694,-0.005972605,0.004459416,-0.018810372,-0.006639796,0.999791076,0.008673440,-0.037681019,-0.013118740,-0.002572323,0.013349668,-0.005116074
1778503990.056801796,15.705385923,0.008852599,0.007067483,-0.006006638,0.005609289,-0.017801263,-0.006686959,0.999803448,0.010985513,-0.035678116,-0.013180353,-0.002771820,0.005949424,-0.004299906
1778503990.164212465,15.812796593,0.011020904,0.005162052,-0.006473437,0.006755429,-0.016661212,-0.003356479,0.999832737,0.013404615,-0.033368392,-0.006490386,0.006971826,-0.007156748,-0.004016902
1778503990.269488573,15.918072701,0.008316247,0.005746569,-0.004371308,0.004806237,-0.018778543,-0.004638346,0.999801356,0.009443177,-0.037603072,-0.009100901,-0.010112069,0.000300265,0.001650652
1778503990.371880531,16.020464659,0.006317520,0.006348910,-0.004837032,0.004259685,-0.020261938,-0.005066364,0.999772795,0.008319066,-0.040568958,-0.009966172,-0.019819358,0.004718702,-0.000208071
1778503990.472379923,16.120964050,0.003267691,0.003955980,-0.003499291,0.006761101,-0.019436729,-0.004230387,0.999779278,0.013365293,-0.038931916,-0.008202386,-0.027691000,-0.011414173,0.002894213
1778503990.572053671,16.220637798,0.002533840,0.003757973,-0.001377085,0.005273938,-0.018497356,-0.005282316,0.999801045,0.010357654,-0.037051546,-0.010374730,-0.022615843,-0.006390284,0.008022444
1778503990.664774179,16.313358307,0.001742414,0.003572096,-0.000815838,0.004791657,-0.019731068,-0.002605015,0.999790447,0.009486043,-0.039489093,-0.005023787,-0.022570834,-0.003958879,0.007557688
1778503990.772579670,16.421163797,0.002224481,0.003585191,0.000200824,0.004300270,-0.020754235,-0.003264055,0.999770031,0.008470483,-0.041538943,-0.006353635,-0.019172834,-0.000090691,0.007977717
1778503990.872007132,16.520591259,0.002471733,0.001100791,0.000719138,0.005707530,-0.020470054,-0.002727418,0.999770455,0.011310512,-0.040973307,-0.005224326,-0.016337989,-0.011730479,0.007234569
1778503990.970181465,16.618765593,0.000724732,0.000683447,0.001998945,0.004734686,-0.019843045,-0.004180147,0.999783158,0.009308903,-0.039727517,-0.008177124,-0.020938857,-0.007056584,0.008890914
1778503991.071342945,16.719927073,0.002136862,0.002314504,0.001280306,0.002782019,-0.017974260,-0.003945256,0.999826796,0.005424784,-0.035972003,-0.007794258,-0.007402508,0.007354508,0.005515989
1778503991.172614574,16.821198702,0.001877702,0.003603201,-0.001268461,0.001963753,-0.017337871,-0.003164147,0.999842753,0.003819476,-0.034689673,-0.006263013,-0.004758853,0.015132677,-0.002277895
1778503991.268323421,16.916907549,0.004948499,0.004443521,-0.002832024,0.002264080,-0.016383162,-0.003002561,0.999858715,0.004431533,-0.032781161,-0.005933310,0.010431935,0.017102411,-0.005100140
1778503991.369471312,17.018055439,0.004670408,0.005244722,-0.004033422,0.003239737,-0.016266949,-0.002535099,0.999859222,0.006399519,-0.032551493,-0.004966734,0.007580820,0.015702272,-0.007041200
1778503991.472135067,17.120719194,0.002947065,0.005549981,-0.003544652,0.004137468,-0.018320634,-0.000409297,0.999823519,0.008264121,-0.036646390,-0.000667296,-0.004803549,0.011433207,-0.004311689
1778503991.568235874,17.216820002,0.003395760,0.006742009,-0.003045361,0.003252360,-0.017209731,-0.001722995,0.999845127,0.006448276,-0.034432143,-0.003335495,-0.000978846,0.015562825,-0.001767939
1778503991.637707710,17.286291838,0.003708620,0.005094857,-0.002085861,0.004976636,-0.017148666,-0.001739284,0.999839053,0.009898007,-0.034315858,-0.003309277,0.000376900,0.002094224,0.001080877
1778503991.743732691,17.392316818,0.003208211,0.003486703,-0.001739224,0.006534392,-0.018254035,-0.001873330,0.999810273,0.013006958,-0.036533753,-0.003509740,-0.004057546,-0.008501117,0.001589403
1778503991.862485409,17.511069536,0.002365842,0.002386894,-0.003569324,0.006652788,-0.016992150,-0.000747893,0.999833210,0.013286008,-0.033995130,-0.001270180,-0.003722647,-0.011864130,-0.003621671
1778503991.929607630,17.578191757,0.004419429,0.001775553,-0.003979956,0.006162727,-0.016117603,-0.000001081,0.999851111,0.012330303,-0.032236003,0.000196597,0.007095903,-0.011851064,-0.003821472
1778503992.061795235,17.710379362,0.003402923,0.002433924,-0.003711077,0.004454469,-0.017632361,-0.002360813,0.999831828,0.008829797,-0.035287147,-0.004566605,-0.000519178,-0.002223789,-0.002373631
1778503992.164625406,17.813209534,0.002874017,0.002591892,-0.002810771,0.003735078,-0.018414836,-0.002447957,0.999820459,0.007383737,-0.036849684,-0.004760723,-0.004692979,0.001794337,0.000300343
1778503992.268282413,17.916866541,0.003338886,0.003310578,-0.001815452,0.003244274,-0.017256992,-0.004040959,0.999837658,0.006351857,-0.034541469,-0.007973474,-0.000814576,0.006741140,0.002765986
1778503992.369692087,18.018276215,0.002641406,0.006680224,-0.001530129,0.001868884,-0.018008468,-0.004689322,0.999825091,0.003570545,-0.036035963,-0.009315874,-0.004737737,0.023015420,0.002905864
1778503992.471996069,18.120580196,0.002251722,0.006778124,-0.001601233,0.003965704,-0.019873065,-0.003941648,0.999786876,0.007779286,-0.039779412,-0.007730186,-0.009900258,0.014468644,0.001663303
1778503992.572405815,18.220989943,0.000300927,0.005743073,-0.001056561,0.005469326,-0.021198947,-0.004321694,0.999750976,0.010762600,-0.042447356,-0.008417029,-0.020914401,0.002523435,0.002135183
1778503992.672245979,18.320830107,0.000150717,0.004374902,0.000502289,0.006361903,-0.021568801,-0.003153153,0.999742152,0.012596580,-0.043180016,-0.006035905,-0.021336849,-0.007059442,0.005340042
1778503992.771903515,18.420487642,0.000146957,0.002962043,0.002020579,0.006449974,-0.021629128,-0.004287129,0.999736065,0.012723366,-0.043315686,-0.008300861,-0.020525596,-0.012106147,0.007808947
1778503992.853531837,18.502115965,0.001131304,0.001458757,0.001194933,0.006971787,-0.021402985,-0.004066176,0.999738352,0.013778961,-0.042864592,-0.007839072,-0.015430607,-0.017378910,0.004227166
1778503992.953586817,18.602170944,0.001651064,0.002084548,-0.000004302,0.003761614,-0.021512893,-0.003580466,0.999755083,0.007374233,-0.043055487,-0.007003881,-0.013541717,-0.003701818,0.000352284
1778503993.054188013,18.702772141,0.001086326,0.003446029,0.000609264,0.001357861,-0.021756948,-0.004363305,0.999752846,0.002527583,-0.043528735,-0.008673692,-0.017688280,0.010441162,0.002250250
1778503993.146737576,18.795321703,0.000465702,0.005321194,0.000141523,0.001233308,-0.020793006,-0.003920941,0.999775353,0.002305001,-0.041598337,-0.007795654,-0.017686826,0.018963360,0.000970143
1778503993.241841316,18.890425444,0.001437862,0.002949755,-0.001470267,0.004312342,-0.021214108,-0.002488690,0.999762558,0.008524829,-0.042452356,-0.004797573,-0.013422112,0.001063542,-0.003823501
1778503993.358537912,19.007122040,0.001715953,0.002507967,-0.001820442,0.003993631,-0.020177902,-0.003453680,0.999782464,0.007852631,-0.040385588,-0.006750247,-0.011054275,0.000857678,-0.003426894
1778503993.460504293,19.109088421,0.002446239,0.002888829,-0.000521906,0.003641890,-0.020312647,-0.001336871,0.999786150,0.007233947,-0.040637528,-0.002527307,-0.009542844,0.003751378,0.000794398
1778503993.561587572,19.210171700,0.001832851,0.002152361,-0.000848615,0.003726481,-0.021761501,-0.002583830,0.999752907,0.007345694,-0.043545265,-0.005008965,-0.016023392,0.001631919,-0.000424927
1778503993.660800695,19.309384823,0.001714688,0.004792890,-0.002051396,0.002187447,-0.020401633,-0.004686192,0.999778489,0.004186213,-0.040826069,-0.009288926,-0.013760671,0.016321633,-0.002887242
1778503993.746065855,19.394649982,0.001112039,0.005481057,-0.001411121,0.002827831,-0.019401001,-0.003255027,0.999802485,0.005532440,-0.038822499,-0.006403912,-0.013025046,0.015258960,-0.000520038
1778503993.860098124,19.508682251,0.001176022,0.004179716,-0.002972495,0.004353666,-0.018249599,-0.004307514,0.999814704,0.008554311,-0.036538071,-0.008460275,-0.007476265,0.003406570,-0.004249014
1778503993.963627338,19.612211466,-0.000136386,0.003897598,-0.002542639,0.004365177,-0.018934203,-0.003595484,0.999804738,0.008598775,-0.037901475,-0.007029368,-0.011996003,0.000972363,-0.002274872
1778503994.058188438,19.706772566,0.000952592,0.002945898,-0.003494136,0.004715318,-0.018997544,-0.002517300,0.999805242,0.009340040,-0.038020588,-0.004857990,-0.005875682,-0.003847648,-0.003900078
1778503994.166223288,19.814807415,0.001881474,0.002774561,-0.002367580,0.004143419,-0.018472407,-0.001656336,0.999819413,0.008229862,-0.036960283,-0.003161160,-0.000988366,-0.001919720,0.000370439
1778503994.262587070,19.911171198,0.002744954,0.002801157,-0.003663565,0.003527740,-0.017806807,-0.001309958,0.999834365,0.007012165,-0.035624493,-0.002495433,0.003485572,0.000690663,-0.003032565
1778503994.369369984,20.017954111,0.002387606,0.002771432,-0.002446661,0.003273480,-0.018321039,-0.002519118,0.999823623,0.006457884,-0.036660319,-0.004920727,-0.000574857,0.002501376,0.000854709
1778503994.453956842,20.102540970,0.002174398,0.003429634,-0.002812896,0.002795997,-0.019548086,-0.003509056,0.999798850,0.005457880,-0.039117906,-0.006912731,-0.004466318,0.007019689,-0.000319206
1778503994.552447319,20.201031446,0.000676083,0.002381413,-0.003078796,0.003579384,-0.020092824,-0.004073973,0.999783411,0.006999220,-0.040216950,-0.008008902,-0.012181861,0.000596501,-0.001439438
1778503994.668253422,20.316837549,0.001510971,0.002083448,-0.004920538,0.002964117,-0.017325107,-0.002203698,0.999843087,0.005854496,-0.034664783,-0.004306599,-0.001056669,0.001815352,-0.005455419
1778503994.770769835,20.419353962,0.003009306,0.002656614,-0.005199422,0.002938654,-0.016761972,-0.004207811,0.999846336,0.005738604,-0.033549816,-0.008320591,0.006643893,0.005758061,-0.004383766
1778503994.833842278,20.482426405,0.001631722,0.003286810,-0.003661232,0.002133757,-0.018565318,-0.004571426,0.999814922,0.004099825,-0.037151819,-0.009068314,-0.003077922,0.009807542,-0.000008088
1778503994.972410917,20.620995045,0.001649949,0.004707853,-0.003866022,0.002025295,-0.019668374,-0.004527579,0.999794256,0.003874666,-0.039357154,-0.008980702,-0.005428513,0.014361693,-0.000583372
1778503995.061588764,20.710172892,0.002904251,0.004241411,-0.003759816,0.003123009,-0.018708462,-0.002736633,0.999816359,0.006146821,-0.037435889,-0.005359187,0.000355294,0.007925582,0.000155778
1778503995.169960022,20.818544149,0.003121330,0.005757950,-0.004991059,0.003003772,-0.019200977,-0.003360566,0.999805484,0.005881697,-0.038424127,-0.006609401,-0.001068439,0.012949617,-0.003112970
1778503995.270831585,20.919415712,0.003328059,0.005064257,-0.005391736,0.003712004,-0.021537497,-0.001184393,0.999760449,0.007378126,-0.043086798,-0.002210378,-0.007379390,0.005708912,-0.003926619
1778503995.361671209,21.010255337,0.002591196,0.005210009,-0.002156616,0.003200540,-0.021437552,-0.004585455,0.999754551,0.006208661,-0.042907097,-0.009039879,-0.013644758,0.006340599,0.005309400
1778503995.470091105,21.118675232,0.000939307,0.005596853,-0.002586765,0.002283471,-0.020071822,-0.006543604,0.999774519,0.004306717,-0.040175283,-0.013003449,-0.017005786,0.009107460,0.002742868
1778503995.571513176,21.220097303,0.000102039,0.005142685,0.000106278,0.002713808,-0.021207973,-0.006962454,0.999747159,0.005135575,-0.042455765,-0.013819170,-0.020745507,0.005581820,0.008872297
1778503995.672608137,21.321192265,-0.000410224,0.003209290,0.000921945,0.004388891,-0.021304397,-0.007340552,0.999736454,0.008470510,-0.042674950,-0.014503942,-0.020208338,-0.006022579,0.008656398
1778503995.771551847,21.420135975,0.001390500,0.002851737,0.001801726,0.004703322,-0.019721218,-0.007048761,0.999769607,0.009133712,-0.039509933,-0.013920076,-0.008258884,-0.006278914,0.009616531
1778503995.870624781,21.519208908,0.001840665,-0.000130269,0.004055549,0.006688259,-0.020466979,-0.008445859,0.999732483,0.013038570,-0.041047509,-0.016628195,-0.008278859,-0.020729632,0.013211428
1778503995.972100258,21.620684385,0.001982959,-0.000183093,0.003607016,0.004976499,-0.020471414,-0.004374855,0.999768481,0.009779944,-0.040988367,-0.008551219,-0.007731337,-0.013779689,0.008766046
1778503996.048288345,21.696872473,0.002600423,-0.001353883,0.004706369,0.004655610,-0.019886140,-0.004298669,0.999782170,0.009145600,-0.039814160,-0.008417071,-0.004965207,-0.014814193,0.010342588
1778503996.165716887,21.814301014,0.000997369,-0.000346053,0.004153413,0.001856206,-0.020882441,-0.005318420,0.999766069,0.003492477,-0.041787017,-0.010566248,-0.013791859,0.001835709,0.005872378
1778503996.271575451,21.920159578,0.000071780,0.003227589,0.003545773,-0.000353282,-0.021616010,-0.002537756,0.999763063,3.140775782,-3.098359203,3.136498289,-0.017592896,0.023018219,0.002959179
1778503996.372587919,22.021172047,0.003240752,0.005304355,0.002076502,-0.000947680,-0.018970858,-0.005277326,0.999805660,3.139495921,-3.103659216,3.130996276,0.001313053,0.031002609,-0.000735890
1778503996.472627163,22.121211290,0.002497046,0.006442717,0.001207875,0.000545962,-0.019404722,-0.004069942,0.999803278,0.000934460,-0.038816000,-0.008123302,-0.003778065,0.027516322,-0.002786203
1778503996.568885326,22.217469454,0.001164628,0.006178517,0.001429570,0.003208366,-0.021263665,-0.003378310,0.999763047,0.006277264,-0.042551770,-0.006624620,-0.013626463,0.015009119,-0.001735507
1778503996.670081615,22.318665743,0.001434720,0.006303357,0.001304914,0.004021788,-0.019674794,-0.005224955,0.999784691,0.007842409,-0.039393330,-0.010297576,-0.008772586,0.009261548,-0.001344163
1778503996.772490263,22.421074390,0.002074633,0.007026310,-0.000550681,0.004076157,-0.019125788,-0.004033526,0.999800640,0.008002350,-0.038286186,-0.007915408,-0.003634151,0.008099911,-0.005864145
1778503996.872042656,22.520626783,0.001979636,0.006058902,-0.001429275,0.004663251,-0.019431094,-0.003372329,0.999794636,0.009200619,-0.038895465,-0.006567062,-0.004634218,-0.000473246,-0.006733139
1778503996.971957684,22.620541811,0.002052761,0.005270018,-0.001895624,0.005811236,-0.019872983,-0.002293283,0.999782994,0.011538182,-0.039774480,-0.004358059,-0.005372817,-0.007393533,-0.006361295
1778503997.070181370,22.718765497,0.001058807,0.001892540,-0.001873906,0.007610345,-0.018714003,-0.001761049,0.999794363,0.015162862,-0.037455871,-0.003238812,-0.007194151,-0.025645460,-0.004862897
1778503997.154929399,22.803513527,0.002143777,0.001106923,-0.000401688,0.006531837,-0.017251732,-0.003095879,0.999825049,0.012962667,-0.034544740,-0.005968899,0.001482692,-0.022703920,0.000709962
1778503997.270277977,22.918862104,0.002096717,0.000484082,-0.001440951,0.004500406,-0.018740028,-0.003643130,0.999807624,0.008868892,-0.037514435,-0.007121253,-0.000363367,-0.014777010,-0.001997519
1778503997.371483564,23.020067692,0.004527218,0.000118050,-0.000452204,0.004061768,-0.016681011,-0.003686401,0.999845816,0.008003845,-0.033393031,-0.007240256,0.012376954,-0.010579220,0.001877607
1778503997.471473932,23.120058060,0.004676270,0.000794151,-0.000111656,0.002576154,-0.017147847,-0.006446500,0.999828864,0.004933265,-0.034329781,-0.012810340,0.010267084,-0.000804943,0.002344441
1778503997.570203304,23.218787432,0.003666191,0.003649940,-0.000686206,-0.000280474,-0.018820589,-0.007349012,0.999795829,3.140754601,-3.103954397,3.126876119,0.001421206,0.019166810,0.000129999
1778503997.668286324,23.316870451,0.003794942,0.005091985,-0.000032474,-0.000101271,-0.018680889,-0.007828500,0.999794843,3.141097321,-3.104231436,3.125923506,0.000718623,0.023352145,0.001872595
1778503997.772797823,23.421381950,0.004433222,0.007708496,0.001582850,-0.000725859,-0.018954021,-0.007962937,0.999788383,3.139838124,-3.103695124,3.125630496,0.001233047,0.031848539,0.005986462
1778503997.861785650,23.510369778,0.003358133,0.007322199,0.001912939,0.001239461,-0.018267591,-0.006313084,0.999812434,0.002249311,-0.036552117,-0.012587257,-0.002435479,0.021702899,0.005434770
1778503997.967087269,23.615671396,0.003576875,0.006455512,0.003365919,0.002961148,-0.019430888,-0.005372446,0.999792383,0.005716638,-0.038895332,-0.010635830,-0.003802447,0.010038323,0.007407299
1778503998.071704388,23.720288515,0.003794270,0.004897119,0.002225546,0.003949304,-0.021410377,-0.005697748,0.999746735,0.007659738,-0.042868041,-0.011234055,-0.007835758,-0.000834363,0.002344182
1778503998.169635773,23.818219900,0.004582074,0.004617473,0.000456351,0.003406534,-0.020743992,-0.006742371,0.999756282,0.006537364,-0.041535751,-0.013352038,-0.004797257,-0.000224579,-0.002511597
1778503998.268785238,23.917369366,0.004554929,0.002272993,0.001387225,0.004619827,-0.022031801,-0.006428300,0.999725929,0.008962711,-0.044125239,-0.012662174,-0.010107907,-0.012088615,0.000307779
1778503998.370199919,24.018784046,0.002557169,0.001448968,0.001052326,0.003819095,-0.020576382,-0.005034552,0.999768313,0.007435611,-0.041193333,-0.009918181,-0.016397783,-0.010520805,-0.000522537
1778503998.468316078,24.116900206,0.002276685,0.002017317,0.001110264,0.003298203,-0.020470081,-0.004942853,0.999772807,0.006397960,-0.040974930,-0.009756775,-0.014807756,-0.003958205,-0.000171440
1778503998.572568655,24.221152782,0.001962407,0.001878022,-0.000030950,0.003089454,-0.019664600,-0.004165277,0.999793183,0.006018511,-0.039356962,-0.008213779,-0.011948705,-0.001947513,-0.002792697
1778503998.671722412,24.320306540,0.001397972,0.000084631,-0.000980459,0.003820488,-0.021092600,-0.005665438,0.999754174,0.007406771,-0.042230670,-0.011177120,-0.014811274,-0.008095740,-0.004941364
1778503998.770752430,24.419336557,0.000955221,-0.000698357,-0.000578571,0.002772403,-0.021536261,-0.004874442,0.999752341,0.005338462,-0.043102228,-0.009636154,-0.016782803,-0.006349037,-0.002585357
1778503998.871941566,24.520525694,-0.000750679,0.000380160,-0.000478553,0.000214539,-0.020762370,-0.004326461,0.999775055,0.000249541,-0.041529192,-0.008649632,-0.020094533,0.007301698,-0.001404744
1778503998.969767332,24.618351460,-0.002577615,0.001457438,0.001331432,0.000211162,-0.021401676,-0.002599192,0.999767557,0.000311257,-0.042807572,-0.005192919,-0.025014539,0.013653102,0.003751680
1778503999.045857906,24.694442034,-0.001165286,0.001536981,0.001607557,0.001039929,-0.019525093,-0.001936765,0.999806950,0.002005357,-0.039056605,-0.003835107,-0.011773810,0.011961147,0.004525668
1778503999.169822454,24.818406582,0.000446623,0.002716038,0.000510654,0.001125749,-0.016947125,-0.002681600,0.999852157,0.002161517,-0.033901769,-0.005327337,0.004389632,0.015180922,0.000999407
1778503999.264435768,24.913019896,0.001528739,0.002465726,0.002250953,0.002337361,-0.017991717,-0.001542549,0.999834214,0.004621451,-0.035992450,-0.003002430,0.006645944,0.008961352,0.005028825
1778503999.362604380,25.011188507,0.001567343,0.002799911,0.001393388,0.002087632,-0.020212320,-0.000446172,0.999793431,0.004159775,-0.040429164,-0.000808428,0.000399224,0.009266868,0.001474355
1778503999.468016148,25.116600275,0.002623528,0.004967819,0.000753160,0.000539985,-0.018734985,-0.002905612,0.999820117,0.000971585,-0.037475138,-0.005794046,0.005417512,0.020066488,-0.000307481
1778503999.567667961,25.216252089,0.004561613,0.004148923,0.001611555,0.003203933,-0.017556106,-0.004000380,0.999832743,0.006270244,-0.035139204,-0.007891878,0.012950564,0.007412112,0.002147051
1778503999.668234348,25.316818476,0.004923861,0.003050809,0.002530493,0.003923777,-0.020274961,-0.004531835,0.999776471,0.007668425,-0.040587564,-0.008909991,0.004631816,-0.000827666,0.003595981
1778503999.771755695,25.420339823,0.004839289,0.002479812,0.003694554,0.003733295,-0.021261870,-0.004303289,0.999757709,0.007288453,-0.042558414,-0.008453493,-0.002831291,-0.003534270,0.005527774
1778503999.869932413,25.518516541,0.007794682,0.002121066,0.002013478,0.002297104,-0.020023643,-0.005018122,0.999784274,0.004395798,-0.040072424,-0.009950238,0.007830500,-0.000617404,0.000017862
1778503999.946142673,25.594726801,0.008215798,0.001047227,0.002635416,0.002162221,-0.019816440,-0.004555972,0.999790916,0.004146243,-0.039654687,-0.009031566,0.005773431,-0.003710009,0.001820509
1778504000.071170092,25.719754219,0.007228553,0.001196820,0.001888439,0.001653720,-0.022392802,-0.004076823,0.999739570,0.003127139,-0.044802410,-0.008085661,-0.008055737,0.001635531,-0.001441600
1778504000.170854092,25.819438219,0.004629406,0.002932999,0.000798153,-0.000120858,-0.023430116,-0.006852591,0.999701984,3.141029276,-3.094730893,3.127870398,-0.022663125,0.014542091,-0.004373877
1778504000.271905661,25.920489788,0.001204684,0.003007400,0.000529735,0.000833279,-0.023435254,-0.005234409,0.999711306,0.001422301,-0.046882873,-0.010438398,-0.034519919,0.011796581,-0.004431037
1778504000.369944572,26.018528700,-0.001801926,0.003482472,0.002664983,0.000783713,-0.024487627,-0.003993651,0.999691849,0.001373001,-0.048986012,-0.007956085,-0.043841904,0.012367412,0.002269336
1778504000.460973978,26.109558105,-0.003626209,0.003541607,0.001792091,0.001982772,-0.022184302,-0.001511608,0.999750789,0.003901339,-0.044378106,-0.002937386,-0.038845106,0.007807367,-0.000204106
1778504000.568525553,26.217109680,-0.004781890,0.004051435,0.001164869,0.002292834,-0.020472836,0.000498993,0.999787656,0.004609005,-0.040946130,0.001092572,-0.029381798,0.007594073,-0.001484384
1778504000.670058489,26.318642616,-0.005353104,0.003040120,-0.000453138,0.004190493,-0.018883615,0.001752688,0.999811371,0.008451722,-0.037754385,0.003665598,-0.019548169,-0.002626127,-0.005030448
1778504000.760183811,26.408767939,-0.003783710,0.002931890,-0.001152625,0.003963619,-0.018536417,0.003366433,0.999814662,0.008056187,-0.037047751,0.006883337,-0.006630795,-0.003188239,-0.005123990
1778504000.872287512,26.520871639,-0.002844350,0.002449563,-0.003104256,0.003682165,-0.016167693,0.001026513,0.999861987,0.007400442,-0.032328994,0.002172943,0.006045393,-0.004364453,-0.008486422
1778504000.925758600,26.574342728,-0.000863149,0.001654539,-0.002627854,0.004673778,-0.014652089,-0.000136129,0.999881720,0.009346611,-0.029306178,-0.000135323,0.017736823,-0.009221210,-0.005617411
1778504001.072087765,26.720671892,0.002774234,0.001551382,-0.002338239,0.003785323,-0.015928337,0.002390446,0.999863113,0.007649712,-0.031839595,0.004903331,0.027782035,-0.006159376,-0.002863849
1778504001.170996428,26.819580555,0.003637074,0.000724322,-0.001512612,0.004404810,-0.017227434,0.001198423,0.999841176,0.008854881,-0.034445650,0.002549749,0.022762084,-0.009864492,-0.000554467
1778504001.237888336,26.886472464,0.003476221,0.000388648,-0.001331679,0.003231904,-0.017236679,0.000368476,0.999846146,0.006479412,-0.034472500,0.000848757,0.018462069,-0.007029732,0.000023963
1778504001.370121002,27.018705130,0.005257675,-0.000792956,-0.000742420,0.003368849,-0.017789071,0.001759867,0.999834538,0.006803551,-0.035567896,0.003641319,0.017711969,-0.008726424,0.001630265
1778504001.471952200,27.120536327,0.005672824,0.000318444,-0.000141172,0.001964974,-0.019888731,0.001440842,0.999799230,0.003989638,-0.039774300,0.002961613,0.009383058,0.001565788,0.002521444
1778504001.528105974,27.176690102,0.004839798,0.000048355,-0.000607708,0.002735688,-0.020048630,0.001196796,0.999794547,0.005522706,-0.040093213,0.002504810,0.003073079,-0.000854546,0.000922145
1778504001.672106981,27.320691109,0.003379310,0.003873027,-0.000857682,-0.000268620,-0.020342909,0.000595028,0.999792848,3.141079310,-3.100903717,-3.140412797,-0.006702469,0.021314785,-0.000209369
1778504001.771906614,27.420490742,0.002979821,0.003147447,0.002332388,0.002771046,-0.020445429,0.003337743,0.999781559,0.005682141,-0.040874809,0.006793064,-0.009436795,0.008334935,0.007733022
1778504001.872257233,27.520841360,0.002397219,0.002446889,0.001572085,0.004331354,-0.022741855,0.004690177,0.999720986,0.008882907,-0.045446032,0.009584786,-0.015487242,-0.001126413,0.003361868
1778504001.970514536,27.619098663,0.001045735,0.001793949,0.003496193,0.004777390,-0.022774736,0.006514609,0.999707981,0.009859086,-0.045489612,0.013257123,-0.021435840,-0.006505898,0.007361396
1778504002.071690321,27.720274448,-0.000576503,0.003406139,0.004152058,0.003170391,-0.021894744,0.005487851,0.999740192,0.006585796,-0.043757276,0.011122557,-0.023518450,0.003695174,0.007373032
1778504002.144196987,27.792781115,-0.000422107,0.001653614,0.002226205,0.005630644,-0.018830834,0.005907808,0.999789374,0.011489787,-0.037596062,0.012033980,-0.012175331,-0.009990208,0.001245839
1778504002.272297144,27.920881271,-0.001898307,-0.000481842,0.003304430,0.006828657,-0.018383348,0.006800067,0.999784567,0.013914193,-0.036674126,0.013858034,-0.010579715,-0.021102178,0.003532292
1778504002.366127729,28.014711857,-0.000911934,0.000692768,0.001081873,0.004627056,-0.019041314,0.005132928,0.999794815,0.009454668,-0.038036484,0.010447707,-0.004005420,-0.010464558,-0.002468535
1778504002.439972401,28.088556528,-0.001142653,0.000492851,-0.001150814,0.005342699,-0.018856327,0.003766186,0.999800835,0.010833202,-0.037673811,0.007737928,-0.002625355,-0.011582037,-0.007995477
1778504002.568813086,28.217397213,0.000417252,-0.000780677,-0.001757749,0.005257244,-0.017260056,0.001348892,0.999836303,0.010565816,-0.034507127,0.002880542,0.007924451,-0.014589902,-0.006358980
1778504002.643652916,28.292237043,0.003896916,-0.000597214,-0.002508992,0.004364899,-0.016367182,0.002143466,0.999854224,0.008803514,-0.032716716,0.004431575,0.022929229,-0.010103705,-0.006923746
1778504002.743019104,28.391603231,0.004309912,0.000752724,-0.003193144,0.002930601,-0.018627549,0.000508818,0.999822068,0.005883231,-0.037254104,0.001127418,0.015205804,0.000816454,-0.007200255
1778504002.870399952,28.518984079,0.006050595,-0.001257897,-0.002877516,0.005054810,-0.019753857,0.000322135,0.999792044,0.010128319,-0.039506517,0.000844500,0.011867013,-0.011462822,-0.004515912
1778504002.971923590,28.620507717,0.004992911,-0.000236485,-0.001185979,0.002903688,-0.019994360,-0.000820477,0.999795540,0.005778032,-0.039995972,-0.001525725,0.001519498,-0.001144919,0.000610154
1778504003.054209709,28.702793837,0.003726351,0.002463745,-0.000650567,0.001295247,-0.020488785,-0.001554812,0.999788035,0.002528358,-0.040984384,-0.003058463,-0.006144461,0.013638479,0.001769807
1778504003.146263838,28.794847965,0.003567931,0.001202119,-0.000169891,0.003652799,-0.019534637,-0.003089022,0.999797736,0.007188990,-0.039093897,-0.006038733,-0.005113582,0.001253132,0.002362555
1778504003.258126736,28.906710863,0.003329859,0.001603671,-0.000968828,0.004186290,-0.018617443,-0.002643516,0.999814422,0.008278435,-0.037258730,-0.005133759,-0.002511745,0.000150000,-0.000398184
1778504003.355848789,29.004432917,0.003734764,0.002317067,0.000753321,0.003638901,-0.017265276,-0.002777073,0.999840466,0.007185098,-0.034552129,-0.005430874,0.003087025,0.002662349,0.004421964
1778504003.460859299,29.109443426,0.002780101,0.001252561,0.003010964,0.004393859,-0.019214845,-0.002188493,0.999803328,0.008708433,-0.038450837,-0.004210396,-0.003736121,-0.004586171,0.008373959
1778504003.535840034,29.184424162,0.002981665,0.002388465,0.000942122,0.003839614,-0.019833829,-0.002652498,0.999792399,0.007578457,-0.039690213,-0.005155669,-0.003446572,0.000925087,0.001877804
1778504003.660122871,29.308706999,0.002078930,0.002362279,-0.002586093,0.004135270,-0.019511269,-0.001866791,0.999799342,0.008202376,-0.039040064,-0.003574195,-0.005316578,-0.001300451,-0.007496873
1778504003.760362148,29.408946276,0.001835530,0.000717398,-0.002058043,0.005984720,-0.019132677,-0.000197874,0.999799022,0.011968512,-0.038269373,-0.000166783,-0.004691809,-0.012949236,-0.004519532
1778504003.852767229,29.501351357,0.002524139,0.002300960,-0.002831127,0.003945474,-0.019003722,0.000354533,0.999811565,0.007908730,-0.038006633,0.000859511,-0.000733102,-0.001433323,-0.005367921
1778504003.964202642,29.612786770,0.001714703,0.001647960,-0.003190571,0.004343402,-0.019807746,-0.001401549,0.999793391,0.008636375,-0.039629855,-0.002632523,-0.005325920,-0.005301931,-0.005010883
1778504004.066154480,29.714738607,0.001996538,0.003873491,-0.004212588,0.002941892,-0.020473102,-0.000983896,0.999785592,0.005847172,-0.040954661,-0.001848462,-0.005196346,0.007605427,-0.006118172
1778504004.149950027,29.798534155,0.001047981,0.003121011,-0.004001504,0.004975249,-0.020014586,0.000935532,0.999786871,0.009993994,-0.040022015,0.002071481,-0.008351220,-0.002536564,-0.004754939
1778504004.245664120,29.894248247,0.001164758,0.002899536,-0.003673594,0.006085763,-0.018128884,0.000175992,0.999817121,0.012183990,-0.036256939,0.000572951,-0.002611976,-0.007499314,-0.002378925
1778504004.366697073,30.015281200,0.000496604,0.001720653,-0.003374340,0.006465141,-0.017408012,-0.002106618,0.999825347,0.012862841,-0.034844233,-0.003989843,-0.001065163,-0.014142621,-0.000839986
1778504004.470318317,30.118902445,0.000898481,0.001282633,-0.004342940,0.005935096,-0.016329408,-0.001563061,0.999847829,0.011823925,-0.032678216,-0.002933383,0.005968244,-0.014061349,-0.002946620
1778504004.532255650,30.180839777,0.002176754,-0.000219455,-0.002911158,0.006028718,-0.016568798,-0.001278393,0.999843735,0.012020084,-0.033153904,-0.002357906,0.011155392,-0.019521770,0.001510035
1778504004.671085119,30.319669247,0.002977427,-0.001599738,-0.003903280,0.004879616,-0.018882129,-0.001012631,0.999809296,0.009726221,-0.037775923,-0.001841915,0.008164614,-0.016575531,-0.001717610
1778504004.771147966,30.419732094,0.005334531,-0.001135222,-0.005492532,0.003851510,-0.017656938,-0.002101709,0.999834477,0.007632363,-0.035331571,-0.004069260,0.016818865,-0.008367864,-0.004995009
